시도,시군구,읍면동,우편번호,주소,센터명,경도,위도,행정구역코드,인구수,nearest_er_hpid_1st,nearest_er_travel_time_1st,nearest_er_hpid_2nd,nearest_er_travel_time_2nd,nearest_er_hpid_3rd,nearest_er_travel_time_3rd,nearest_er_hpid_center,nearest_er_travel_time_center,측정시각
경북,경산시,남부동,38645,경북 경산시 경안로 68 (신교동),남부동행정복지센터,128.7391133,35.8137117,4729053000,18560,A2700019,2.4996,A2700036,4.6655,A1300081,11.6917,A1300009,24.3945,20241107_005805
경북,경산시,남산면,38572,경상북도 경산시 산양1길 9-1,남산면행정복지센터,128.8367944,35.793504,4729035000,3583,A2700019,14.578,A2700036,16.1492,A1300081,22.133,A1300009,34.5019,20241107_005806
경북,경산시,남천면,38695,경상북도 경산시 남천면 남천로 465 남천보건지소,남천면행정복지센터,128.72685,35.766667,4729037000,2724,A2700019,8.4717,A2700036,11.8107,A1300081,16.2464,A1300009,28.795,20241107_005807
경북,경산시,동부동,38581,경상북도 경산시 백자로 46,동부동행정복지센터,128.7536901,35.8102508,4729056000,36261,A2700019,4.2589,A2700036,7.4496,A1300081,12.3704,A1300009,24.9304,20241107_005807
경북,경산시,북부동,38615,경상북도 경산시 중방로 125 (계양동),북부동행정복지센터,128.746563,35.83334,4729055000,16449,A2700036,5.3671,A2700019,6.3714,A1300081,10.034,A1300009,24.6696,20241107_005808
경북,경산시,서부1동,38678,경상북도 경산시 경산로 135 서부1동주민센터,서부1동행정복지센터,128.7278782,35.8205779,4729054100,30456,A2700036,5.2684,A2700019,7.1948,A1300081,8.6924,A1300009,22.6192,20241107_005809
경북,경산시,서부2동,38660,경상북도 경산시 경산로44길 7 경상북도 개발공사,서부2동행정복지센터,128.725875,35.8275167,4729054200,40589,A2700036,5.014,A1300081,7.1153,A2700019,7.4131,A1300009,20.5895,20241107_005811
경북,경산시,압량읍,38509,경상북도 경산시 압량읍 부적길 35,압량읍행정복지센터,128.7597871,35.8433007,4729025600,21738,A2700036,8.5012,A2700019,10.937,A1300081,11.9935,A1300009,26.4125,20241107_005811
경북,경산시,와촌면,38412,경상북도 경산시 금송로 416 와촌면행정복지센터,와촌면행정복지센터,128.8365091,35.9462951,4729031000,5257,A2700017,13.9768,A1300018,26.5265,A2700036,26.867,A1300009,27.3038,20241107_005813
경북,경산시,용성면,38561,경상북도 경산시 용성면 원효로 1423,용성면행정복지센터,128.8758276,35.7933343,4729034000,3234,A2700019,19.9462,A2700036,20.9785,A1300081,27.9736,A1300009,41.5396,20241107_005816
경북,경산시,자인면,38555,경상북도 경산시 자인면 일연로 82,자인면행정복지센터,128.8226,35.820858,4729033000,5227,A2700019,14.1125,A2700036,14.2267,A1300081,21.5164,A1300009,31.0506,20241107_005817
경북,경산시,중방동,38624,경상북도 경산시 중앙초등길 62 중방동 행정복지센터,중방동행정복지센터,128.733925,35.827058,4729051000,10810,A2700036,1.9619,A2700019,7.2194,A1300081,9.0626,A1300009,23.3278,20241107_005818
경북,경산시,중앙동,38634,경상북도 경산시 경안로30길 18,중앙동행정복지센터,128.7402826,35.8197951,4729052000,5855,A2700019,2.9275,A2700036,3.923,A1300081,10.9149,A1300009,23.7219,20241107_005819
경북,경산시,진량읍,38487,경상북도 경산시 진량읍 다문로 50,진량읍행정복지센터,128.8162125,35.8739904,4729025300,33548,A2700036,17.6534,A2700017,18.1591,A1300018,18.8782,A1300009,23.461,20241107_005820
경북,경산시,하양읍,38431,경상북도 경산시 하양읍 문화로 36,하양읍행정복지센터,128.8122901,35.9123859,4729025000,32660,A2700017,15.2507,A2700036,23.8164,A1300081,24.1494,A1300009,31.4157,20241107_005821
경북,경주시,감포읍,38125,경상북도 경주시 감포읍 감포로8길 14-8,감포읍행정복지센터,129.5016436,35.8074109,4713025000,5200,A2700008,37.3501,A2700016,39.5687,A2700002,42.2651,A2700002,42.2651,20241107_005822
경북,경주시,강동면,38004,경상북도 경주시 강동면 강동로 19,강동면행정복지센터,129.273313,35.987785,4713037000,5940,A2700016,11.0197,A2700008,13.1438,A2700002,13.8296,A2700002,13.8296,20241107_005823
경북,경주시,건천읍,38178,경상북도 경주시 건천읍 내서로 1106,건천읍행정복지센터,129.1019346,35.8499328,4713025600,9744,A2700003,16.3505,A2700097,16.634,A2700017,21.567,A2700003,16.3505,20241107_005824
경북,경주시,내남면,38193,경상북도 경주시 내남면 이조중앙길 31,내남면행정복지센터,129.2001359,35.7524042,4713033000,4436,A2700097,13.5959,A2700003,14.2406,A2700016,38.97,A2700003,14.2406,20241107_005825
경북,경주시,동천동,38103,경상북도 경주시 대안길 45,동천동행정복지센터,129.2226219,35.8541722,4713063000,20853,A2700097,6.6003,A2700003,7.8772,A2700016,26.769,A2700003,7.8772,20241107_005826
경북,경주시,문무대왕면,38121,경상북도 경주시 문무대왕면 어일중앙길 24,문무대왕면행정복지센터,129.443125,35.791133,4713031500,4114,A2700008,28.0285,A2700016,30.1496,A2700005,32.8019,A2700002,33.071,20241107_005827
경북,경주시,보덕동,38118,경상북도 경주시 경감로 593,보덕동행정복지센터,129.28745,35.834699,4713066000,1658,A2700097,14.1627,A2700003,14.6462,A2700016,33.0229,A2700003,14.6462,20241107_005829
경북,경주시,불국동,38129,경상북도 경주시 산업로 3008,불국동행정복지센터,129.3006248,35.775264,4713065000,9765,A2700097,16.3154,A2700003,19.9784,A2700016,37.0758,A2700003,19.9784,20241107_005830
경북,경주시,산내면,38186,경상북도 경주시 산내면 문복로 1822,산내면행정복지센터,129.0443956,35.7557456,4713034000,3195,A2700097,30.1511,A2700003,30.8748,A2700017,35.7868,A2700003,30.8748,20241107_005831
경북,경주시,서면,38053,경상북도 경주시 서면 내서로 458,서면행정복지센터,129.0525474,35.8913424,4713035000,2983,A2700017,19.7426,A2700003,21.4214,A2700097,22.6477,A2700003,21.4214,20241107_005832
경북,경주시,선도동,38057,경상북도 경주시 태종로 416,선도동행정복지센터,129.1748665,35.8436313,4713059000,14172,A2700003,7.4765,A2700097,9.3511,A2700008,35.1258,A2700003,7.4765,20241107_005833
경북,경주시,성건동,38135,경상북도 경주시 금성로 370,성건동행정복지센터,129.20735,35.850824,4713055000,13164,A2700097,3.4435,A2700003,4.1562,A2700016,29.5299,A2700003,4.1562,20241107_005833
경북,경주시,안강읍,38023,경상북도 경주시 안강읍 비화원로 47,안강읍행정복지센터,129.2270258,35.990128,4713025300,22597,A2700016,15.1981,A2700003,15.3787,A2700008,17.3556,A2700003,15.3787,20241107_005834
경북,경주시,양남면,38220,경상북도 경주시 양남면 다래길 8,양남면행정복지센터,129.4603262,35.6778108,4713032000,6363,A2700008,44.4507,A2700016,46.4143,A2700005,49.3059,A2700002,49.4541,20241107_005835
경북,경주시,외동읍,38213,경상북도 경주시 외동읍 읍청사로 25,외동읍행정복지센터,129.327637,35.7175474,4713025900,21587,A2700097,24.7362,A2700003,29.0424,A2700008,38.8825,A2700003,29.0424,20241107_005837
경북,경주시,용강동,38095,경상북도 경주시 토용길 20,용강동행정복지센터,129.223187,35.864257,4713061500,25317,A2700097,7.2214,A2700003,7.5856,A2700016,24.4411,A2700003,7.5856,20241107_005838
경북,경주시,월성동,38164,경상북도 경주시 원화로 177,월성동행정복지센터,129.219575,35.83654,4713060500,5494,A2700097,7.9752,A2700003,9.4811,A2700016,32.5622,A2700003,9.4811,20241107_005839
경북,경주시,중부동,38157,경상북도 경주시 원효로 50,중부동행정복지센터,129.2062327,35.8420342,4713051500,4641,A2700097,3.4129,A2700003,6.0175,A2700016,31.2019,A2700003,6.0175,20241107_005839
경북,경주시,천북면,38035,경상북도 경주시 천북면 천북로 383,천북면행정복지센터,129.2711256,35.8953299,4713038000,5583,A2700003,13.1267,A2700097,16.2839,A2700008,23.2761,A2700003,13.1267,20241107_005840
경북,경주시,현곡면,38051,경상북도 경주시 현곡면 금장2길 12,현곡면행정복지센터,129.2023949,35.8664403,4713036000,21853,A2700003,2.7856,A2700097,7.6573,A2700016,24.9391,A2700003,2.7856,20241107_005841
경북,경주시,황남동,38167,경상북도 경주시 첨성로 47,황남동행정복지센터,129.2075032,35.8335506,4713057000,3867,A2700097,5.351,A2700003,6.4556,A2700016,31.3561,A2700003,6.4556,20241107_005842
경북,경주시,황성동,38074,경상북도 경주시 갓뒤동녘길 37,황성동행정복지센터,129.219185,35.8722285,4713062100,27118,A2700003,7.2286,A2700097,9.3326,A2700016,25.4145,A2700003,7.2286,20241107_005843
경북,경주시,황오동,38146,경상북도 경주시 북성로 130,황오동행정복지센터,129.216013,35.84694,4713053000,5721,A2700097,3.2179,A2700003,7.4785,A2700016,28.9927,A2700003,7.4785,20241107_005844
경북,고령군,개진면,40147,경상북도 고령군 개진면 개경포로 589-9,개진면행정복지센터,128.3502095,35.708153,4783035000,1837,A2700070,12.4676,A1303449,21.6959,A1300003,37.3486,A1300003,37.3486,20241107_005844
경북,고령군,다산면,40104,경상북도 고령군 다산면 다산로 681,다산면행정복지센터,128.4521122,35.8226936,4783034000,8474,A1300038,14.22,A1300006,15.5954,A1300003,18.1077,A1300003,18.1077,20241107_005845
경북,고령군,대가야읍,40136,경상북도 고령군 대가야읍 중앙로 1,대가야읍행정복지센터,128.2679275,35.7304254,4783025300,9450,A2700070,1.8858,A1303449,25.6597,A2700030,30.7314,A1300003,33.141,20241107_005847
경북,고령군,덕곡면,40127,경상북도 고령군 덕곡면 덕운로 570,덕곡면행정복지센터,128.232937,35.77935,4783031000,1444,A2700070,10.7557,A2700030,30.4199,A2700066,42.0428,A2700012,57.7344,20241107_005848
경북,고령군,성산면,40118,경상북도 고령군 성산면 성산로 897,성산면행정복지센터,128.359862,35.749926,4783033000,2489,A2700070,9.6046,A1303449,17.4118,A1300003,23.6285,A1300003,23.6285,20241107_005849
경북,고령군,쌍림면,40163,경상북도 고령군 쌍림면 대가야로 613,쌍림면행정복지센터,128.2418429,35.679681,4783037000,3233,A2700070,7.496,A1303449,26.9884,A1300003,32.9277,A1300003,32.9277,20241107_005850
경북,고령군,우곡면,40152,경상북도 고령군 우곡면 도진3길 21,우곡면행정복지센터,128.342087,35.67796,4783036000,1529,A2700070,13.7183,A1303449,27.0911,A1300003,37.1886,A1300003,37.1886,20241107_005851
경북,고령군,운수면,40123,경상북도 고령군 운수면 운용로 106,운수면행정복지센터,128.29045,35.769067,4783032000,1744,A2700070,5.8485,A2700030,24.6464,A1303449,26.3681,A1300003,29.9437,20241107_005852
경북,구미시,고아읍,39142,경상북도 구미시 고아읍 선산대로 980,고아읍행정복지센터,128.3283922,36.2109468,4719025300,38950,A2700007,19.1276,A2700013,23.0129,A2700015,25.033,A2700013,23.0129,20241107_005853
경북,구미시,공단동,39375,경상북도 구미시 1공단로 198-8,공단동주민센터,128.384463,36.10144,4719070000,4087,A2700013,2.2906,A2700007,10.0192,A2700015,12.0321,A2700013,2.2906,20241107_005853
경북,구미시,광평동,39345,경상북도 구미시 광평길 55,광평동주민센터,128.3660419,36.1047125,4719063000,4099,A2700013,4.9822,A2700007,6.7922,A2700015,13.0227,A2700013,4.9822,20241107_005854
경북,구미시,도개면,39103,경상북도 구미시 도개면 도안로 103,도개면행정복지센터,128.330813,36.299558,4719033000,2034,A2700063,22.7104,A2700009,23.4882,A2700007,25.8587,A2700013,28.8092,20241107_005855
경북,구미시,도량동,39198,경상북도 구미시 문장로12길 1,도량동주민센터,128.332575,36.1405404,4719055100,27036,A2700007,10.4646,A2700013,13.8576,A2700015,18.606,A2700013,13.8576,20241107_005855
경북,구미시,무을면,39101,경상북도 구미시 무을면 상무로 981,무을면행정복지센터,128.1974625,36.2607667,4719031000,1772,A2700012,24.5388,A2700018,25.2885,A2700011,29.3543,A2700012,24.5388,20241107_005856
경북,구미시,비산동,39244,경상북도 구미시 비산로 4,비산동주민센터,128.3722,36.119324,4719061000,12485,A2700013,7.3012,A2700007,9.8351,A2700015,11.799,A2700013,7.3012,20241107_005857
경북,구미시,산동읍,39159,경상북도 구미시 산동읍 강동로 1038-5,산동읍행정복지센터,128.43415,36.1696763,4719025600,30667,A2700015,16.5273,A2700013,17.2046,A2700007,22.0175,A2700013,17.2046,20241107_005858
경북,구미시,상모사곡동,39325,경상북도 구미시 박정희로188,상모사곡동주민센터,128.3534996,36.0953818,4719064500,29497,A2700007,6.6904,A2700013,7.2305,A2700015,15.8707,A2700013,7.2305,20241107_005859
경북,구미시,선산읍,39119,경상북도 구미시 선산읍 선산중앙로 71-1,선산읍행정복지센터,128.298975,36.242976,4719025000,13658,A2700007,22.4709,A2700013,25.3217,A2700015,27.3777,A2700013,25.3217,20241107_005859
경북,구미시,선주원남동,39210,경상북도 구미시 봉곡로 42,선주원남동주민센터,128.3102,36.1425904,4719056500,36925,A2700007,11.4344,A2700013,16.4031,A2700015,21.0782,A2700013,16.4031,20241107_005900
경북,구미시,송정동,39280,경상북도 구미시 송원동로 10,송정동주민센터,128.3471819,36.1185139,4719051000,23346,A2700007,4.7666,A2700013,9.644,A2700015,16.1581,A2700013,9.644,20241107_005901
경북,구미시,신평1동,39237,경상북도 구미시 칠성로 32,신평1동주민센터,128.359275,36.1209071,4719059000,4640,A2700007,5.9811,A2700013,8.7954,A2700015,14.5009,A2700013,8.7954,20241107_005901
경북,구미시,신평2동,39250,경상북도 구미시 신비로7길 9,신평2동주민센터,128.3657125,36.1231654,4719060000,2947,A2700007,9.624,A2700013,9.6261,A2700015,14.8574,A2700013,9.6261,20241107_005902
경북,구미시,양포동,39184,경상북도 구미시 산호대로35길 6,양포동주민센터,128.4258,36.1369821,4719069000,44680,A2700013,12.5879,A2700015,13.5251,A2700007,16.4029,A2700013,12.5879,20241107_005903
경북,구미시,옥성면,39102,경상북도 구미시 옥성면 주아령로 415,옥성면행정복지센터,128.278775,36.295783,4719032000,1620,A2700063,25.2582,A2700009,26.2766,A2700011,28.9002,A2700013,33.9872,20241107_005904
경북,구미시,원평동,39227,경상북도 구미시 구미중앙로25길 20,원평동주민센터,128.3400005,36.127033,4719053500,9512,A2700007,6.1329,A2700013,12.4665,A2700015,17.6696,A2700013,12.4665,20241107_005904
경북,구미시,인동동,39434,경상북도 구미시 인동15길 42,인동동주민센터,128.4291963,36.1042563,4719067000,46096,A2700015,7.1809,A2700013,13.7579,A2700007,18.1108,A2700013,13.7579,20241107_005905
경북,구미시,임오동,39351,경상북도 구미시 임은길 61,임오동주민센터,128.369238,36.089282,4719066000,17523,A2700013,5.6852,A2700007,9.5823,A2700015,14.6464,A2700013,5.6852,20241107_005906
경북,구미시,장천면,39453,경상북도 구미시 장천면 강동로 184,장천면행정복지센터,128.4951,36.125907,4719036000,2780,A2700015,18.019,A2700013,20.7241,A1300010,23.517,A2700013,20.7241,20241107_005908
경북,구미시,지산동,39192,경상북도 구미시 선산대로 105,지산동주민센터,128.3458125,36.1394321,4719055500,1868,A2700007,7.5476,A2700013,12.8386,A2700015,17.8035,A2700013,12.8386,20241107_005909
경북,구미시,진미동,39397,경상북도 구미시 이계북로 149,진미동주민센터,128.4186119,36.1060634,4719068000,16532,A2700015,4.4726,A2700013,8.4892,A2700007,12.7867,A2700013,8.4892,20241107_005909
경북,구미시,해평면,39154,경상북도 구미시 해평면 강동로 1672,해평면행정복지센터,128.391288,36.199835,4719034000,3683,A2700015,18.9119,A2700013,19.5301,A2700007,20.2146,A2700013,19.5301,20241107_005910
경북,구미시,형곡1동,39293,경상북도 구미시 경은로 52,형곡1동주민센터,128.334438,36.114007,4719058200,12799,A2700007,3.3759,A2700013,10.487,A2700015,18.9106,A2700013,10.487,20241107_005911
경북,구미시,형곡2동,39318,경상북도 구미시 형곡로 180,형곡2동주민센터,128.3355323,36.1062452,4719058300,15455,A2700007,3.7715,A2700013,8.6599,A2700015,17.1349,A2700013,8.6599,20241107_005912
경북,김천시,감문면,39512,경상북도 김천시 감문면 감문로 1055,감문면행정복지센터,128.1810064,36.2142223,4715035000,3114,A2700012,16.8592,A2700018,17.6514,A2700007,31.1426,A2700012,16.8592,20241107_005913
경북,김천시,감천면,39681,경상북도 김천시 감천면 금감로 1552,감천면행정복지센터,128.1255005,36.0659251,4715039000,1791,A2700018,9.7967,A2700012,12.0341,A2700007,32.0597,A2700012,12.0341,20241107_005914
경북,김천시,개령면,39504,경상북도 김천시 개령면 동부길59-14,개령면행정복지센터,128.1861813,36.1676998,4715034000,2241,A2700018,10.4903,A2700012,11.1215,A2700007,24.23,A2700012,11.1215,20241107_005914
경북,김천시,구성면,39685,경상북도 김천시 구성면 상좌원1길 16,구성면행정복지센터,128.0474332,36.0327241,4715041000,2616,A2700018,16.7102,A2700012,18.9032,A2700030,40.1103,A2700012,18.9032,20241107_005915
경북,김천시,남면,39661,경상북도 김천시 남면 옥산길 44,남면행정복지센터,128.189496,36.1079173,4715032000,2944,A2700018,12.1055,A2700012,12.9245,A2700030,26.4521,A2700012,12.9245,20241107_005916
경북,김천시,농소면,39659,경상북도 김천시 농소면 농남로 42,농소면행정복지센터,128.1723227,36.1060922,4715031000,3089,A2700018,9.7178,A2700012,10.4996,A2700030,24.7358,A2700012,10.4996,20241107_005917
경북,김천시,대곡동,39629,경상북도 김천시 부곡길 2,대곡동행정복지센터,128.0892426,36.1244724,4715059500,20248,A2700012,8.3485,A2700018,8.773,A2700011,33.9963,A2700012,8.3485,20241107_005917
경북,김천시,대덕면,39698,경상북도 김천시 대덕면 남김천대로 721,대덕면행정복지센터,127.9686561,35.9179469,4715044000,2181,A2700018,30.184,A2700012,32.2933,A2700030,50.6743,A2700012,32.2933,20241107_005918
경북,김천시,대신동,39547,경상북도 김천시 신양1길 22,대신동행정복지센터,128.1158592,36.1353069,4715057500,23846,A2700012,2.3778,A2700018,5.0905,A2700011,31.1599,A2700012,2.3778,20241107_005919
경북,김천시,대항면,39564,경상북도 김천시 대항면 황악로 1563,대항면행정복지센터,128.0221239,36.1244378,4715038000,3185,A2700012,16.5168,A2700018,16.5212,A2700011,34.5597,A2700012,16.5168,20241107_005920
경북,김천시,봉산면,39563,경상북도 김천시 봉산면 예지송정길 11,봉산면행정복지센터,128.0602698,36.1414787,4715037000,2854,A2700012,9.8634,A2700018,11.2669,A2700011,29.7382,A2700012,9.8634,20241107_005920
경북,김천시,부항면,39689,경상북도 김천시 부항면 부항로 834,부항면행정복지센터,127.955109,35.990228,4715043000,1214,A2700018,28.7584,A2700012,30.9112,A2700030,52.5588,A2700012,30.9112,20241107_005921
경북,김천시,아포읍,39674,경상북도 김천시 아포읍 국사길 63,아포읍행정복지센터,128.253401,36.1598889,4715025000,7633,A2700007,16.8464,A2700018,18.0315,A2700012,19.1203,A2700013,19.7015,20241107_005922
경북,김천시,양금동,39618,경상북도 김천시 강변로 178,양금동행정복지센터,128.1233942,36.110466,4715056500,3472,A2700018,3.9258,A2700012,6.4511,A2700030,33.5217,A2700012,6.4511,20241107_005923
경북,김천시,어모면,39504,경상북도 김천시 어모면 어모로 279,어모면행정복지센터,128.1187498,36.1805798,4715036000,3993,A2700012,9.2877,A2700018,12.5848,A2700011,26.9049,A2700012,9.2877,20241107_005924
경북,김천시,율곡동,39660,경상북도 김천시 혁신4로 21,율곡동행정복지센터,128.1837472,36.1213716,4715064000,23378,A2700018,11.3795,A2700012,12.0734,A2700007,24.8841,A2700012,12.0734,20241107_005925
경북,김천시,자산동,39578,경상북도 김천시 용암로 27,자산동행정복지센터,128.127875,36.1222487,4715051600,5982,A2700018,1.6128,A2700012,5.399,A2700030,31.8441,A2700012,5.399,20241107_005925
경북,김천시,조마면,39693,경상북도 김천시 조마면 강곡1길 32,조마면행정복지센터,128.099025,36.03495,4715040000,2085,A2700018,14.6606,A2700012,16.8879,A2700030,39.1739,A2700012,16.8879,20241107_005926
경북,김천시,증산면,39696,경상북도 김천시 증산면 증산로 945-7,증산면행정복지센터,128.0352033,35.9019768,4715045000,965,A2700018,39.598,A2700030,40.9016,A2700012,41.823,A2700012,41.823,20241107_005927
경북,김천시,지례면,39691,경상북도 김천시 지례면 상부길 101,지례면행정복지센터,128.02665,35.984793,4715042000,1397,A2700018,22.0577,A2700012,24.3725,A2700030,47.635,A2700012,24.3725,20241107_005928
경북,김천시,지좌동,39647,경상북도 김천시 영남대로 1940,지좌동행정복지센터,128.1423343,36.120007,4715061000,10562,A2700018,5.1411,A2700012,5.8209,A2700030,29.3458,A2700012,5.8209,20241107_005929
경북,김천시,평화남산동,39607,경상북도 김천시 평화순환길 291,평화남산동행정복지센터,128.1162617,36.1205621,4715053600,6977,A2700018,5.5908,A2700012,6.5793,A2700011,33.349,A2700012,6.5793,20241107_005929
경북,문경시,가은읍,36996,경상북도 문경시 가은읍 가은로 123,가은읍행정복지센터,128.0620398,36.6426866,4728025300,3887,A2700006,23.3944,A2700009,39.3309,A2700011,39.9928,A2700006,23.3944,20241107_005930
경북,문경시,농암면,37000,경상북도 문경시 농암면 농암길 50,농암면행정복지센터,128.0029384,36.6009478,4728037000,2507,A2700006,22.9284,A2700009,36.1413,A2700011,36.6562,A2700006,22.9284,20241107_005931
경북,문경시,동로면,36902,경상북도 문경시 동로면 벌재장터길 8-7,동로면행정복지센터,128.3149837,36.7733563,4728035000,1945,A2700023,34.3225,A2700006,38.4316,A2700009,55.3076,A2700006,38.4316,20241107_005932
경북,문경시,마성면,36924,경상북도 문경시 마성면 은성로 1661,마성면행정복지센터,128.116675,36.692626,4728036000,3285,A2700006,18.2477,A2700009,33.4188,A2700011,34.184,A2700006,18.2477,20241107_005933
경북,문경시,문경읍,36916,경상북도 문경시 문경읍 청운로 55,문경읍행정복지센터,128.1070111,36.7373076,4728025000,6707,A2700006,22.7513,A2700009,34.5408,A2700011,35.1821,A2700006,22.7513,20241107_005933
경북,문경시,산북면,36910,경상북도 문경시 산북면 금천로 586,산북면행정복지센터,128.259413,36.656032,4728034000,2585,A2700006,14.7879,A2700023,26.0729,A2700009,29.9514,A2700006,14.7879,20241107_005934
경북,문경시,산양면,36935,경상북도 문경시 산양면 불암2길 8-5,산양면행정복지센터,128.258675,36.611732,4728032000,2943,A2700006,10.9824,A2700023,21.379,A2700009,27.1745,A2700006,10.9824,20241107_005935
경북,문경시,영순면,36942,경상북도 문경시 영순면 산남로 23,영순면행정복지센터,128.235987,36.582083,4728031000,2288,A2700006,10.2534,A2700023,25.9153,A2700009,27.3083,A2700006,10.2534,20241107_005936
경북,문경시,점촌1동,36969,경상북도 문경시 점촌로 54-3,점촌1동행정복지센터,128.1977725,36.5986308,4728057000,5352,A2700006,6.9538,A2700011,23.7819,A2700009,24.9675,A2700006,6.9538,20241107_005937
경북,문경시,점촌2동,36949,경상북도 문경시 중앙로 50,점촌2동행정복지센터,128.1961082,36.5900855,4728058000,6515,A2700006,4.7176,A2700009,22.8013,A2700011,23.2741,A2700006,4.7176,20241107_005937
경북,문경시,점촌3동,36962,경상북도 문경시 신흥로 254,점촌3동행정복지센터,128.2065781,36.6029838,4728059000,8480,A2700006,6.7253,A2700009,22.57,A2700011,23.2074,A2700006,6.7253,20241107_005938
경북,문경시,점촌4동,36991,경상북도 문경시 공평로 71,점촌4동행정복지센터,128.1823,36.605532,4728060000,2914,A2700006,5.928,A2700009,24.2122,A2700011,24.7814,A2700006,5.928,20241107_005940
경북,문경시,점촌5동,36978,경상북도 문경시 매봉로 65,점촌5동행정복지센터,128.1800782,36.590444,4728061000,15841,A2700006,4.4998,A2700009,21.6356,A2700011,22.0552,A2700006,4.4998,20241107_005941
경북,문경시,호계면,36929,경상북도 문경시 호계면 막곡장터길 11,호계면행정복지센터,128.2058423,36.6312721,4728033000,2295,A2700006,10.7404,A2700023,26.0561,A2700009,27.0879,A2700006,10.7404,20241107_005942
경북,봉화군,명호면,36252,경상북도 봉화군 명호면 도천길 18 ,명호면행정복지센터,128.8995404,36.8586687,4792037000,2112,A2700071,23.7986,A2700001,42.0952,A2700004,42.8095,A2700004,42.8095,20241107_005942
경북,봉화군,물야면,36202,경상북도 봉화군 물야면 문수로 991,물야면행정복지센터,128.7358042,36.9751835,4792031000,2837,A2700071,13.0187,A2702752,27.1168,A2700031,27.5584,A2700004,53.3048,20241107_005943
경북,봉화군,법전면,36219,경상북도 봉화군 법전면 법전로 100 ,법전면행정복지센터,128.8769326,36.910752,4792033000,1902,A2700071,17.1083,A2700031,25.1734,A2700020,25.6181,A2700004,51.8543,20241107_005944
경북,봉화군,봉성면,36230,경상북도 봉화군 봉성면 옥마로 23 ,봉성면행정복지센터,128.81805,36.885924,4792032000,1912,A2700071,13.8139,A2702752,23.6401,A2700031,24.1739,A2700004,51.391,20241107_005945
경북,봉화군,봉화읍,36238,경상북도 봉화군 봉화읍 내성로3길 9,봉화읍행정복지센터,128.7395875,36.8876904,4792025000,9189,A2700071,3.2498,A2702752,15.5427,A2700031,16.1832,A2700004,42.0947,20241107_005946
경북,봉화군,상운면,36244,경상북도 봉화군 상운면 예봉로 1281 ,상운면행정복지센터,128.755175,36.833815,4792038000,1625,A2700071,12.381,A2702752,21.5924,A2700031,22.2028,A2700004,32.0758,20241107_005946
경북,봉화군,석포면,36272,경상북도 봉화군 석포면 석포로1길 55 ,석포면행정복지센터,129.0651481,37.0486623,4792039000,1798,A2700071,54.0261,A2700052,66.9403,A2700026,86.6921,A2700004,89.7974,20241107_005947
경북,봉화군,소천면,36266,경상북도 봉화군 소천면 소천로 1294 ,소천면행정복지센터,129.0030884,36.9377006,4792035000,2090,A2700071,26.5489,A2700004,59.6055,A2700026,59.6108,A2700004,59.6055,20241107_005948
경북,봉화군,재산면,36262,경상북도 봉화군 재산면 대내골길 4,재산면행정복지센터,128.9620772,36.816085,4792036000,1413,A2700071,37.5675,A2700026,40.4391,A2700001,50.6598,A2700004,51.348,20241107_005949
경북,봉화군,춘양면,36216,경상북도 봉화군 춘양면 의양로5길 19 ,춘양면행정복지센터,128.914875,36.935118,4792034000,4204,A2700071,22.2507,A2700031,30.3415,A2700001,61.0889,A2700004,61.6117,20241107_005950
경북,상주시,계림동,37176,경상북도 상주시 냉림1길 50,계림동행정복지센터,128.164288,36.422093,4725054000,8822,A2700009,2.4943,A2700011,5.2709,A2700006,20.6666,A2700006,20.6666,20241107_005951
경북,상주시,공검면,37132,경상북도 상주시 공검면 비재로 1308,공검면행정복지센터,128.158638,36.51215,4725045000,2007,A2700006,11.7019,A2700009,13.9614,A2700011,14.3424,A2700006,11.7019,20241107_005951
경북,상주시,공성면,37267,경상북도 상주시 공성면 공성중앙로 67,공성면행정복지센터,128.0924754,36.283428,4725035000,3791,A2700012,16.9792,A2700011,18.4992,A2700009,19.9848,A2700012,16.9792,20241107_005952
경북,상주시,낙동면,37249,경상북도 상주시 낙동면 상촌1길 29,낙동면행정복지센터,128.248125,36.374982,4725033000,3759,A2700009,16.8868,A2700063,19.6394,A2700011,19.9904,A2700006,26.581,20241107_005953
경북,상주시,남원동,37200,경상북도 상주시 중앙로 132,남원동행정복지센터,128.1525784,36.4154898,4725052000,11163,A2700011,1.2986,A2700009,4.0442,A2700006,19.3745,A2700006,19.3745,20241107_005954
경북,상주시,내서면,37150,경상북도 상주시 내서면 신촌2길 8,내서면행정복지센터,128.0675678,36.4122846,4725037000,1804,A2700011,11.2704,A2700009,13.4625,A2700006,27.7903,A2700006,27.7903,20241107_005954
경북,상주시,동문동,37233,경상북도 상주시 복룡2길 23,동문동행정복지센터,128.169138,36.41741,4725055000,7441,A2700009,5.5943,A2700011,5.6806,A2700006,22.0348,A2700006,22.0348,20241107_005955
경북,상주시,동성동,37232,경상북도 상주시 성동새싹길 42,동성동행정복지센터,128.16975,36.415315,4725056000,3249,A2700009,5.4687,A2700011,5.555,A2700006,24.2593,A2700006,24.2593,20241107_005956
경북,상주시,모동면,37271,경상북도 상주시 모동면 용호3길 5,모동면행정복지센터,127.9594085,36.3201456,4725038000,2513,A2700011,32.2759,A2700009,34.3279,A2700012,38.3352,A2700012,38.3352,20241107_005957
경북,상주시,모서면,37275,경상북도 상주시 모서면 중화로 901,모서면행정복지센터,127.96005,36.342465,4725039000,2345,A2700011,28.5844,A2700009,30.596,A2700012,41.186,A2700012,41.186,20241107_005958
경북,상주시,북문동,37160,경상북도 상주시 북천로 63,북문동행정복지센터,128.157775,36.429026,4725053000,9194,A2700009,3.306,A2700011,5.6825,A2700006,18.9435,A2700006,18.9435,20241107_005958
경북,상주시,사벌국면,37127,경상북도 상주시 사벌국면 덕담1길 39,사벌국면행정복지센터,128.208587,36.466368,4725032500,3651,A2700009,12.9456,A2700011,15.8057,A2700006,20.3763,A2700006,20.3763,20241107_005959
경북,상주시,신흥동,37218,경상북도 상주시 상산로 141,신흥동행정복지센터,128.1599339,36.4035959,4725057000,8472,A2700011,5.1393,A2700009,6.7385,A2700006,23.9967,A2700006,23.9967,20241107_005959
경북,상주시,외남면,37259,경상북도 상주시 외남면 석단로 932,외남면행정복지센터,128.0894125,36.3574404,4725036000,1505,A2700011,16.1617,A2700009,17.7792,A2700012,26.9599,A2700012,26.9599,20241107_010000
경북,상주시,외서면,37136,경상북도 상주시 외서면 가곡1길 2,외서면행정복지센터,128.108138,36.479326,4725043000,2515,A2700011,16.903,A2700009,17.1024,A2700006,21.7521,A2700006,21.7521,20241107_010001
경북,상주시,은척면,37104,경상북도 상주시 은척면 봉중2길 2,은척면행정복지센터,128.071513,36.531725,4725044000,1453,A2700006,22.4602,A2700011,28.2392,A2700009,28.4879,A2700006,22.4602,20241107_010002
경북,상주시,이안면,37107,경상북도 상주시 이안면 양범안룡길 46,이안면행정복지센터,128.1455,36.579433,4725046000,1937,A2700006,8.0208,A2700009,22.2466,A2700011,22.6694,A2700006,8.0208,20241107_010002
경북,상주시,중동면,37245,경상북도 상주시 중동면 공산로 9,중동면행정복지센터,128.2715375,36.4263263,4725031000,1295,A2700009,16.0011,A2700011,18.4932,A2700063,22.6476,A2700006,24.5071,20241107_010003
경북,상주시,청리면,37255,경상북도 상주시 청리면 원장1길 12,청리면행정복지센터,128.130563,36.338624,4725034000,2416,A2700011,13.1017,A2700009,14.688,A2700012,21.8494,A2700012,21.8494,20241107_010004
경북,상주시,함창읍,37115,경상북도 상주시 함창읍 함창중앙로 135    ,함창읍행정복지센터,128.179438,36.570192,4725025000,6156,A2700006,7.0658,A2700009,21.1029,A2700011,21.5972,A2700006,7.0658,20241107_010004
경북,상주시,화남면,37137,경상북도 상주시 화남면 평온동관로 3,화남면행정복지센터,127.905575,36.448318,4725047000,796,A2700011,27.426,A2700009,28.9341,A2700012,42.1894,A2700012,42.1894,20241107_010005
경북,상주시,화동면,37146,경상북도 상주시 화동면 이소1길 42-5,화동면행정복지센터,127.954175,36.389532,4725040000,1873,A2700011,24.8988,A2700009,26.7969,A2700006,41.228,A2700012,48.3416,20241107_010007
경북,상주시,화북면,37102,경상북도 상주시 화북면 문장로 1739,화북면행정복지센터,127.9172092,36.5632573,4725042000,1454,A2700006,35.4441,A2700011,41.6699,A2700009,43.5556,A2700006,35.4441,20241107_010008
경북,상주시,화서면,37139,경상북도 상주시 화서면 화령로 45,화서면행정복지센터,127.951397,36.4454358,4725041000,2841,A2700011,22.8144,A2700009,24.375,A2700012,37.6995,A2700006,39.8552,20241107_010008
경북,성주군,가천면,40060,경상북도 성주군 가천면 가천로 63,가천면행정복지센터,128.1662,35.884407,4784034000,1932,A2700030,12.7708,A2700070,21.6134,A2700018,35.5821,A2700012,37.7773,20241107_010009
경북,성주군,금수강산면,40059,경상북도 성주군 금수면 성주로 1883,금수면행정복지센터,128.1760221,35.9195131,4784035500,1173,A2700030,16.1833,A2700070,25.735,A2700018,31.196,A2700012,33.3806,20241107_010010
경북,성주군,대가면,40056,경상북도 성주군 대가면 동강한강로 891,대가면행정복지센터,128.2287603,35.9103532,4784036000,2242,A2700030,7.3823,A2700070,25.2436,A2700018,32.7007,A2700012,33.6733,20241107_010011
경북,성주군,벽진면,40002,경상북도 성주군 벽진면 수촌길 12,벽진면행정복지센터,128.2164631,35.9485247,4784037000,2927,A2700030,10.4311,A2700070,31.1902,A2700018,35.3764,A2700012,37.0166,20241107_010012
경북,성주군,선남면,40045,경상북도 성주군 선남면 관화길 96,선남면행정복지센터,128.351788,35.900857,4784031000,5954,A2700030,9.4177,A1300003,18.2575,A2700066,19.2437,A2700013,29.8242,20241107_010013
경북,성주군,성주읍,40029,경상북도 성주군 성주읍 성주읍1길 13,성주읍행정복지센터,128.2896145,35.918964,4784025000,13212,A2700030,1.4248,A2700066,14.5676,A2700013,24.7051,A2700013,24.7051,20241107_010014
경북,성주군,수륜면,40064,경상북도 성주군 수륜면 참별로 915,수륜면행정복지센터,128.192388,35.832983,4784033000,3160,A2700030,15.2818,A2700070,16.9595,A2700012,38.9894,A2700012,38.9894,20241107_010016
경북,성주군,용암면,40053,경상북도 성주군 용암면 운용로 1031,용암면행정복지센터,128.336856,35.8363443,4784032000,3557,A2700070,17.491,A2700030,18.049,A1300003,20.6316,A1300003,20.6316,20241107_010016
경북,성주군,월항면,40038,경상북도 성주군 월항면 주산로 366,월항면행정복지센터,128.3158,35.94561,4784039000,3165,A2700030,6.5801,A2700066,11.9493,A2700013,22.4507,A2700013,22.4507,20241107_010017
경북,성주군,초전면,40013,경상북도 성주군 초전면 대장길 107,초전면행정복지센터,128.263313,35.974626,4784038000,4269,A2700030,10.2363,A2700066,22.6238,A2700013,32.235,A2700013,32.235,20241107_010018
경북,안동시,강남동,36747,경상북도 안동시 강남5길 185,강남동행정복지센터,128.7271351,36.5486899,4717069000,10436,A2700014,7.0037,A2700004,7.2437,A2700001,9.1317,A2700004,7.2437,20241107_010020
경북,안동시,길안면,36735,경상북도 안동시 길안면 길안청송로 3,길안면행정복지센터,128.8943801,36.4559559,4717039000,2563,E2700554,17.2599,A2700014,20.1671,A2700004,21.3181,A2700004,21.3181,20241107_010021
경북,안동시,남선면,36741,경상북도 안동시 남선면 충효로 3866,남선면행정복지센터,128.769837,36.526192,4717037000,1975,A2700014,11.7755,A2700004,13.0385,A2700001,13.9572,A2700004,13.0385,20241107_010021
경북,안동시,남후면,36755,경상북도 안동시 남후면 남일로 1465-9,남후면행정복지센터,128.6899618,36.5236437,4717036000,1622,A2700014,5.8429,A2700004,11.0828,A2700001,12.6279,A2700004,11.0828,20241107_010022
경북,안동시,녹전면,36601,경상북도 안동시 녹전면 녹전로 713,녹전면행정복지센터,128.7737125,36.7428429,4717043000,1603,A2700071,28.1042,A2700031,28.6154,A2700004,29.1778,A2700004,29.1778,20241107_010023
경북,안동시,도산면,36604,경상북도 안동시 도산면 퇴계로 2580,도산면행정복지센터,128.8338223,36.7451538,4717042000,1414,A2700001,26.1898,A2700004,27.0345,A2700014,37.964,A2700004,27.0345,20241107_010023
경북,안동시,명륜동,36679,경상북도 안동시 퇴계로 221,명륜동행정복지센터,128.7330018,36.5767071,4717052000,4616,A2700001,3.3645,A2700004,4.7578,A2700014,10.7142,A2700004,4.7578,20241107_010024
경북,안동시,북후면,36614,경상북도 안동시 북후면 북평로 877 ,북후면행정복지센터,128.7022829,36.6850376,4717032000,2772,A2700004,17.3063,A2700014,18.3606,A2700001,20.2258,A2700004,17.3063,20241107_010025
경북,안동시,서구동,36671,경상북도 안동시 안기천로 78,서구동행정복지센터,128.7174877,36.5643392,4717058500,8356,A2700004,3.1052,A2700001,4.9932,A2700014,8.1577,A2700004,3.1052,20241107_010025
경북,안동시,서후면,36616,경상북도 안동시 서후면 서후중앙길 20 ,서후면행정복지센터,128.66385,36.6169571,4717033000,3687,A2700014,14.418,A2700004,14.5344,A2700001,16.5618,A2700004,14.5344,20241107_010026
경북,안동시,송하동,36641,경상북도 안동시 송하1길 60,송하동행정복지센터,128.6942669,36.5703591,4717066000,15448,A2700004,6.9505,A2700014,7.2384,A2700001,10.8902,A2700004,6.9505,20241107_010027
경북,안동시,안기동,36626,경상북도 안동시 제비원로 355,안기동행정복지센터,128.7142953,36.5829861,4717063000,5877,A2700004,4.5442,A2700001,5.3969,A2700014,10.2828,A2700004,4.5442,20241107_010027
경북,안동시,예안면,36608,경상북도 안동시 예안면 임예로 1918,예안면행정복지센터,128.8851267,36.6612822,4717041000,1663,A2700001,28.9514,A2700004,30.0101,A2700014,38.0506,A2700004,30.0101,20241107_010028
경북,안동시,옥동,36664,경상북도 안동시 옥동3길 27,옥동행정복지센터,128.7017555,36.5614968,4717065000,20299,A2700014,5.3785,A2700004,8.2073,A2700001,9.3783,A2700004,8.2073,20241107_010029
경북,안동시,와룡면,36611,경상북도 안동시 와룡면 퇴계로 823 ,와룡면행정복지센터,128.766413,36.61644,4717031000,3777,A2700001,10.6946,A2700004,11.616,A2700014,19.225,A2700004,11.616,20241107_010030
경북,안동시,용상동,36712,경상북도 안동시 전거리1길 93,용상동행정복지센터,128.749587,36.55915,4717055500,24445,A2700001,6.6021,A2700004,8.6996,A2700014,11.7811,A2700004,8.6996,20241107_010031
경북,안동시,일직면,36756,경상북도 안동시 일직면 중앙통길 12,일직면행정복지센터,128.659562,36.475301,4717035000,2438,A2700014,11.6745,A2700004,16.062,A2700001,17.5309,A2700004,16.062,20241107_010031
경북,안동시,임동면,36732,경상북도 안동시 임동면 편항1길 11,임동면행정복지센터,128.9175764,36.5688502,4717040000,1623,A2700001,26.2242,A2700004,27.2181,A2700014,27.4594,A2700004,27.2181,20241107_010032
경북,안동시,임하면,36738,경상북도 안동시 임하면 충효로 3254,임하면행정복지센터,128.8310079,36.5247368,4717038000,2599,A2700014,13.9864,A2700004,15.3484,A2700001,16.1572,A2700004,15.3484,20241107_010033
경북,안동시,중구동,36704,경상북도 안동시 서동문로 238,중구동행정복지센터,128.7376925,36.564776,4717051000,4864,A2700001,2.2822,A2700004,3.968,A2700014,10.5224,A2700004,3.968,20241107_010034
경북,안동시,태화동,36676,경상북도 안동시 태화중앙로 100,태화동행정복지센터,128.7139328,36.5611262,4717060000,12157,A2700004,4.3403,A2700001,6.0251,A2700014,7.9911,A2700004,4.3403,20241107_010034
경북,안동시,평화동,36647,경상북도 안동시 평화3길 5,평화동행정복지센터,128.7131293,36.5691268,4717062000,5868,A2700004,3.5437,A2700001,6.6423,A2700014,10.1159,A2700004,3.5437,20241107_010036
경북,안동시,풍산읍,36621,경상북도 안동시 풍산읍 풍산중앙길 99,풍산읍행정복지센터,128.572025,36.580125,4717025000,6031,A2700023,16.2818,A2700014,18.05,A2700004,18.1265,A2700004,18.1265,20241107_010036
경북,안동시,풍천면,36760,경상북도 안동시 풍천면 지풍로 1471 ,풍천면행정복지센터,128.506525,36.5561917,4717034000,7215,A2700023,19.5443,A2700014,27.2935,A2702752,37.1572,A2700004,27.1306,20241107_010037
경북,영덕군,강구면,36456,경상북도 영덕군 강구면 동해대로 4526,강구면행정복지센터,129.3786138,36.361843,4777031000,5667,A2702563,38.0492,A2700008,38.5684,A2700005,40.6493,A2700002,44.4857,20241107_010038
경북,영덕군,남정면,36463,경상북도 영덕군 남정면 진불길 43,남정면행정복지센터,129.3723663,36.2859938,4777032000,2209,A2702563,28.9711,A2700008,29.3256,A2700005,31.6966,A2700002,34.9587,20241107_010040
경북,영덕군,달산면,36448,경상북도 영덕군 달산면 팔각산로 1829,달산면행정복지센터,129.3032598,36.3990698,4777033000,1056,A2702563,49.6669,A2700008,49.824,A2700005,52.0848,A2700002,55.0014,20241107_010041
경북,영덕군,병곡면,36404,경상북도 영덕군 병곡면 병곡길 72,병곡면행정복지센터,129.410625,36.6023737,4777037000,2559,A2700052,38.8054,A2700026,50.1584,A2702563,57.3542,A2700002,62.9401,20241107_010043
경북,영덕군,영덕읍,36439,경상북도 영덕군 영덕읍 우곡길 62,영덕읍행정복지센터,129.3724067,36.4096229,4777025000,10239,A2702563,42.019,A2700008,42.4021,A2700005,44.7041,A2700002,47.698,20241107_010044
경북,영덕군,영해면,36413,경상북도 영덕군 영해면 예주3길 7,영해면행정복지센터,129.407113,36.537558,4777036000,5862,A2700052,45.1517,A2700026,47.232,A2702563,54.4294,A2700002,60.0351,20241107_010045
경북,영덕군,지품면,36444,경상북도 영덕군 지품면 경동로 7153 ,지품면행정복지센터,129.28205,36.448354,4777034000,1885,E2700554,34.3976,A2700026,44.0726,A2702563,57.6289,A2700002,63.2252,20241107_010046
경북,영덕군,창수면,36401,경상북도 영덕군 창수면 신기길 5,창수면행정복지센터,129.3482,36.5462,4777038000,1516,A2700026,39.1441,E2700554,51.7147,A2700052,51.9213,A2700002,67.1616,20241107_010047
경북,영덕군,축산면,36419,경상북도 영덕군 축산면 도곡길 67,축산면행정복지센터,129.414225,36.508992,4777035000,2363,A2700052,46.8465,A2700026,49.8386,A2702563,51.3443,A2700002,57.0718,20241107_010048
경북,영양군,석보면,36560,경상북도 영양군 석보면 원리3길 3,석보면행정복지센터,129.12455,36.558083,4776035000,1909,A2700026,19.8536,E2700554,27.6675,A2700001,53.5627,A2700004,54.7987,20241107_010049
경북,영양군,수비면,36522,경상북도 영양군 수비면 한티로 503,수비면행정복지센터,129.202563,36.765225,4776034000,1592,A2700026,23.9183,E2700554,56.2842,A2700071,65.0729,A2700004,81.3654,20241107_010050
경북,영양군,영양읍,36537,경상북도 영양군 영양읍 군청길 53,영양읍행정복지센터,129.1142432,36.6672436,4776025000,6719,A2700026,2.7534,E2700554,35.3067,A2700001,58.7735,A2700004,59.7103,20241107_010051
경북,영양군,일월면,36515,경상북도 영양군 일월면 영양로 2419,일월면행정복지센터,129.1287501,36.7024131,4776033000,1639,A2700026,8.6091,E2700554,41.347,A2700001,65.0806,A2700004,66.1675,20241107_010052
경북,영양군,입암면,36548,경상북도 영양군 입암면 조기리길 10,입암면행정복지센터,129.0903077,36.5933035,4776031000,1991,A2700026,11.1886,E2700554,25.2404,A2700001,47.8803,A2700004,48.8746,20241107_010053
경북,영양군,청기면,36507,경상북도 영양군 청기면 청기1길 9-6,청기면행정복지센터,129.062285,36.6611773,4776032000,1553,A2700026,8.179,E2700554,37.006,A2700001,52.3345,A2700004,53.1614,20241107_010054
경북,영주시,가흥1동,36137,경상북도 영주시 대동로13번길 9,가흥1동행정복지센터,128.6034571,36.8159935,4721062000,15370,A2700020,2.7615,A2702752,4.5867,A2700031,7.2907,A2700004,30.8931,20241107_010055
경북,영주시,가흥2동,36057,경상북도 영주시 가흥로 357 ,가흥2동행정복지센터,128.6116978,36.8293879,4721063000,10239,A2700031,3.2654,A2702752,3.5179,A2700020,5.2473,A2700004,33.6706,20241107_010055
경북,영주시,단산면,36008,경상북도 영주시 단산면 옥대로 36 ,단산면행정복지센터,128.619487,36.951301,4721038000,1728,A2700031,18.8888,A2702752,19.4136,A2700020,20.206,A2700004,46.2091,20241107_010056
경북,영주시,문수면,36171,경상북도 영주시 문수면 문수로1363번길 35,문수면행정복지센터,128.6305403,36.7720876,4721033000,1898,A2702752,9.356,A2700020,9.818,A2700031,10.7651,A2700004,27.6332,20241107_010057
경북,영주시,봉현면,36044,경상북도 영주시 봉현면 오현로 27,봉현면행정복지센터,128.525013,36.861424,4721036000,2543,A2702752,9.6107,A2700020,10.1456,A2700031,11.4667,A2700004,37.2665,20241107_010057
경북,영주시,부석면,36004,경상북도 영주시 부석면 부석로 49,부석면행정복지센터,128.6541669,36.9788861,4721039000,2832,A2700071,23.8063,A2702752,26.9423,A2700031,28.0953,A2700004,54.8318,20241107_010058
경북,영주시,상망동,36068,경상북도 영주시 광복로 87 ,상망동행정복지센터,128.6283305,36.8281056,4721051000,7077,A2700031,3.719,A2702752,6.5785,A2700020,9.2339,A2700004,35.5968,20241107_010059
경북,영주시,순흥면,36016,경상북도 영주시 순흥면 순흥로 67 ,순흥면행정복지센터,128.5749063,36.9157914,4721037000,1886,A2700031,15.635,A2702752,16.3507,A2700020,17.2188,A2700004,44.6153,20241107_010059
경북,영주시,안정면,36050,경상북도 영주시 안정면 신재로 537,안정면행정복지센터,128.5566697,36.8459286,4721035000,2800,A2702752,6.8157,A2700020,7.7733,A2700031,8.3705,A2700004,34.4781,20241107_010100
경북,영주시,영주1동,36073,경상북도 영주시 광복로 47 ,영주1동행정복지센터,128.6237042,36.8282527,4721055000,3557,A2700031,2.5066,A2702752,5.366,A2700020,8.0215,A2700004,34.5441,20241107_010100
경북,영주시,영주2동,36099,경상북도 영주시 선비로181번길 10 ,영주2동행정복지센터,128.6187113,36.820814,4721056000,4538,A2700031,3.9094,A2700020,6.3307,A2702752,7.0547,A2700004,33.9304,20241107_010101
경북,영주시,이산면,36170,경상북도 영주시 이산면 이산로 201,이산면행정복지센터,128.6562063,36.8217981,4721031000,2199,A2700031,8.3684,A2702752,11.1587,A2700020,11.8642,A2700004,30.9339,20241107_010102
경북,영주시,장수면,36145,경상북도 영주시 장수면 장수로 50,장수면행정복지센터,128.578688,36.774708,4721034000,2018,A2702752,10.124,A2700020,10.2015,A2700031,11.8224,A2700004,32.9618,20241107_010102
경북,영주시,평은면,36174,경상북도 영주시 평은면 신평로 29,평은면행정복지센터,128.688515,36.7584366,4721032000,1374,A2702752,11.3095,A2700020,11.7897,A2700031,13.2708,A2700004,22.1268,20241107_010103
경북,영주시,풍기읍,36030,경상북도 영주시 풍기읍 남원로 80,풍기읍행정복지센터,128.5262727,36.8671714,4721025000,10478,A2702752,11.7491,A2700020,12.2647,A2700031,13.5525,A2700004,39.3613,20241107_010103
경북,영주시,하망동,36089,경상북도 영주시 영주로280번길 21 ,하망동행정복지센터,128.6303515,36.8238988,4721052500,5767,A2700031,4.0859,A2702752,8.6973,A2700020,9.208,A2700004,32.0713,20241107_010104
경북,영주시,휴천1동,36162,경상북도 영주시 남간로 18 ,휴천1동행정복지센터,128.6263899,36.8207827,4721059000,6158,A2700031,2.0279,A2700020,6.9312,A2702752,7.45,A2700004,32.4491,20241107_010106
경북,영주시,휴천2동,36118,경상북도 영주시 대학로 22 ,휴천2동행정복지센터,128.6217626,36.8100769,4721060000,9644,A2700020,6.6664,A2700031,7.144,A2702752,8.3244,A2700004,31.7153,20241107_010106
경북,영주시,휴천3동,36150,경상북도 영주시 구성로273번길 30 ,휴천3동행정복지센터,128.6258484,36.8177771,4721061000,7203,A2700031,3.4301,A2700020,8.3198,A2702752,8.3904,A2700004,30.0494,20241107_010107
경북,영천시,고경면,38901,경상북도 영천시 고경면 호국로 1065-25 ,고경면행정복지센터,129.04585,36.001592,4723038000,5735,A2700017,16.5117,A2700008,30.9719,A2700003,32.4442,A2700003,32.4442,20241107_010108
경북,영천시,금호읍,38877,경상북도 영천시 금호읍 금호로 153 ,금호읍행정복지센터,128.8776223,35.9333442,4723025000,10320,A2700017,6.7327,A2700036,27.7275,A1300081,28.0057,A1300009,35.4396,20241107_010109
경북,영천시,남부동,38896,경상북도 영천시 쇠늘안길 5(도동),남부동행정복지센터,128.9351674,35.9415,4723055500,3841,A2700017,10.5923,A2700003,28.5955,A2700036,30.1635,A2700003,28.5955,20241107_010110
경북,영천시,대창면,38911,경상북도 영천시 대창면 금박로 1057-7,대창면행정복지센터,128.8946401,35.8760649,4723040000,3017,A2700017,15.9209,A2700019,28.4773,A2700036,28.837,A1300009,34.6297,20241107_010111
경북,영천시,동부동,38858,경상북도 영천시 상록4길 63(야사동) ,동부동행정복지센터,128.942575,35.974518,4723051000,26708,A2700017,8.8369,A2700003,33.1932,A2700036,34.6648,A2700003,33.1932,20241107_010112
경북,영천시,북안면,38907,경상북도 영천시 북안면 운북로 1995 ,북안면행정복지센터,129.0091366,35.9153323,4723039000,4347,A2700017,15.1413,A2700003,25.1615,A2700097,26.7707,A2700003,25.1615,20241107_010113
경북,영천시,서부동,38839,경상북도 영천시 장수로 19(화룡동) ,서부동행정복지센터,128.9211565,35.9637331,4723053500,4476,A2700017,2.2195,A2700036,30.9977,A1300081,31.1059,A2700003,32.7597,20241107_010115
경북,영천시,신녕면,38803,경상북도 영천시 신녕면 화성중앙길 30 ,신녕면행정복지센터,128.7897786,36.0453276,4723032000,3639,A2700017,16.2418,A1300018,35.79,A1300081,37.8022,A1300009,36.9459,20241107_010116
경북,영천시,완산동,38894,경상북도 영천시 완산2길 9(완산동),완산동행정복지센터,128.9468829,35.9641359,4723054000,9913,A2700017,8.7821,A2700003,32.5778,A2700036,34.5254,A2700003,32.5778,20241107_010117
경북,영천시,임고면,38817,경상북도 영천시 임고면 포은로 491 ,임고면행정복지센터,128.9737655,36.0215,4723037000,4163,A2700017,12.6796,A2700097,35.3699,A2700036,36.4111,A2700003,36.4423,20241107_010118
경북,영천시,자양면,38814,경상북도 영천시 자양면 포은로 1631 ,자양면행정복지센터,129.0183414,36.0784287,4723036000,1319,A2700017,25.3391,A2700008,41.6376,A2700097,48.1528,A2700003,49.1332,20241107_010119
경북,영천시,중앙동,38838,경상북도 영천시 천문로 402-4(문내동),중앙동행정복지센터,128.9298753,35.9732638,4723052000,9196,A2700017,6.5382,A1300018,33.1993,A1300081,34.1159,A2700003,32.7966,20241107_010120
경북,영천시,청통면,38869,경상북도 영천시 청통면 금송로 978 ,청통면행정복지센터,128.822977,35.9921437,4723031000,3923,A2700017,17.9328,A1300018,27.5806,A1300081,29.4692,A1300009,28.5224,20241107_010121
경북,영천시,화남면,38810,경상북도 영천시 화남면 신화로 1197 ,화남면행정복지센터,128.8890467,36.0590922,4723035000,3191,A2700017,16.9301,A1300018,34.9372,A1300081,36.8405,A1300009,35.8727,20241107_010123
경북,영천시,화북면,38813,경상북도 영천시 화북면 화북길 93 ,화북면행정복지센터,128.9193771,36.1082892,4723034000,2207,A2700017,22.7118,A1300081,42.6004,A2700036,46.8419,A2700003,53.2567,20241107_010124
경북,영천시,화산면,38807,경상북도 영천시 화산면 연지길 16 ,화산면행정복지센터,128.852338,36.020417,4723033000,3039,A2700017,13.4128,A1300018,37.3993,A1300081,37.4388,A1300009,38.5192,20241107_010126
경북,예천군,감천면,36810,경상북도 예천군 감천면 충효로 1389,감천면행정복지센터,128.5265841,36.7208677,4790034000,2450,A2700023,10.9585,A2702752,14.0231,A2700020,14.1015,A2700004,30.8475,20241107_010127
경북,예천군,개포면,36844,경상북도 예천군 개포면 신음리길 28-8,개포면행정복지센터,128.366463,36.608407,4790039000,1462,A2700023,12.8827,A2700006,18.9284,A2700009,34.7584,A2700006,18.9284,20241107_010128
경북,예천군,보문면,36815,경상북도 예천군 보문면 미호길 127,보문면행정복지센터,128.5109206,36.6652881,4790035000,1569,A2700023,7.7643,A2702752,21.3068,A2700020,21.315,A2700004,26.0112,20241107_010128
경북,예천군,예천읍,36822,경북 예천군 예천읍 군청앞길 2(서본리 1-6),예천읍행정복지센터,128.452779,36.656871,4790025000,13835,A2700023,3.111,A2702752,23.1563,A2700020,23.3027,A2700006,26.6787,20241107_010129
경북,예천군,용궁면,36858,경상북도 예천군 용궁면 읍부1길 45,용궁면행정복지센터,128.2773486,36.6086838,4790038000,2248,A2700006,13.5823,A2700023,19.2904,A2700009,29.7341,A2700006,13.5823,20241107_010130
경북,예천군,용문면,36835,경상북도 예천군 용문면 금당실길 54,용문면행정복지센터,128.411013,36.690218,4790031000,2127,A2700023,10.6901,A2702752,27.4545,A2700020,27.5856,A2700006,35.8864,20241107_010130
경북,예천군,유천면,36840,경상북도 예천군 유천면 예성로 699-8,유천면행정복지센터,128.390063,36.635407,4790037000,2463,A2700023,10.1628,A2700006,23.2082,A2700020,27.819,A2700006,23.2082,20241107_010131
경북,예천군,은풍면,36803,경상북도 예천군 은풍면 은풍로 88,은풍면행정복지센터,128.4431143,36.7451086,4790043000,1275,A2700023,16.783,A2700020,34.1766,A2702752,37.1696,A2700006,44.1771,20241107_010132
경북,예천군,지보면,36853,경상북도 예천군 지보면 지보로 126-5,지보면행정복지센터,128.39035,36.548308,4790040000,2570,A2700023,18.6411,A2700063,22.9557,A2700006,32.4969,A2700006,32.4969,20241107_010133
경북,예천군,풍양면,36865,경상북도 예천군 풍양면 낙상2길 50,풍양면행정복지센터,128.299013,36.510592,4790041000,2822,A2700063,23.7885,A2700009,25.4198,A2700011,28.9035,A2700006,30.1693,20241107_010134
경북,예천군,호명읍,36848,경북 예천군 호명읍 오천길 2(오천리 157-3),호명읍행정복지센터,128.4687361,36.594545,4790025300,20882,A2700023,9.0817,A2702752,26.746,A2700020,26.7471,A2700004,26.933,20241107_010134
경북,예천군,효자면,36801,경상북도 예천군 효자면 도효자로 1481,효자면행정복지센터,128.41885,36.771367,4790042000,1170,A2700023,18.9086,A2700020,35.1639,A2702752,40.5091,A2700006,44.5518,20241107_010135
경북,울릉군,북면,40211,경상북도 울릉군 북면 천부2길 15,북면행정복지센터,130.8746,37.54075,4794032000,1350,E2700553,23.6568,A2700052,256.9027,A2702563,283.5187,A2700002,293.1066,20241107_010136
경북,울릉군,서면,40235,경상북도 울릉군 서면 남양4길 31,서면행정복지센터,130.8380393,37.4675611,4794031000,1387,E2700553,15.8587,A2700052,254.0877,A2702563,279.8456,A2700002,284.844,20241107_010137
경북,울릉군,울릉읍,40221,경상북도 울릉군 울릉읍 도동길 158,울릉읍행정복지센터,130.9036819,37.4850007,4794025000,6432,E2700553,1.898,A2700052,252.4983,A2702563,279.6794,A2700002,285.8101,20241107_010138
경북,울진군,근남면,36334,경상북도 울진군 근남면 노음4길 6-7,근남면행정복지센터,129.394463,36.9627893,4793033000,2699,A2700052,5.7514,E2700554,80.5989,A2702563,89.4262,A2700002,94.3748,20241107_010139
경북,울진군,금강송면,36301,경상북도 울진군 금강송면 삼근1길 23,금강송면행정복지센터,129.247175,36.935585,4793039000,1196,A2700052,21.1654,A2700071,47.0086,A2700026,73.9001,A2700004,79.3473,20241107_010140
경북,울진군,기성면,36348,경상북도 울진군 기성면 척산2길 8,기성면행정복지센터,129.451425,36.798192,4793035000,2333,A2700052,20.6307,E2700554,66.8504,A2700026,74.898,A2700002,80.981,20241107_010141
경북,울진군,매화면,36339,경상북도 울진군 매화면 매화1길 95,매화면행정복지센터,129.382225,36.913207,4793040000,1932,A2700052,9.7537,E2700554,75.7602,A2700026,81.4985,A2700002,89.3967,20241107_010143
경북,울진군,북면,36305,경상북도 울진군 북면 부구3길 12,북면행정복지센터,129.3731604,37.1048012,4793031000,7459,A2700052,14.5122,A2700071,66.8161,E2700554,91.4345,A2700002,104.2716,20241107_010144
경북,울진군,온정면,36358,경상북도 울진군 온정면 소태로 23,온정면행정복지센터,129.3450238,36.723841,4793036000,1537,A2700052,39.9165,A2700026,53.2585,E2700554,69.2713,A2700002,81.3704,20241107_010145
경북,울진군,울진읍,36324,경상북도 울진군 울진읍 읍내10길 19,울진읍행정복지센터,129.4029773,36.9972037,4793025000,13384,A2700052,3.336,E2700554,85.1807,A2700026,87.3875,A2700002,98.6496,20241107_010146
경북,울진군,죽변면,36315,경상북도 울진군 죽변면 죽변중앙로 165,죽변면행정복지센터,129.4223345,37.0598075,4793037000,6086,A2700052,10.373,E2700554,89.3414,A2702563,97.8346,A2700002,102.6765,20241107_010147
경북,울진군,평해읍,36366,경상북도 울진군 평해읍 평해로 82,평해읍행정복지센터,129.441347,36.7280587,4793025300,2496,A2700052,27.4979,E2700554,58.9222,A2700026,66.1314,A2700002,72.8446,20241107_010149
경북,울진군,후포면,36370,경상북도 울진군 후포면 삼율로 7-20,후포면행정복지센터,129.4393218,36.678567,4793038000,6990,A2700052,31.031,E2700554,54.4065,A2700026,56.8421,A2700002,68.811,20241107_010150
경북,의성군,가음면,37358,경상북도 의성군 가음면 금성현서로 455,가음면행정복지센터,128.724662,36.234135,4773036000,1439,A2700014,43.5008,A2700004,47.8768,A2700001,48.998,A2700004,47.8768,20241107_010151
경북,의성군,구천면,37367,경상북도 의성군 구천면 소보안계로 1601,구천면행정복지센터,128.432613,36.347407,4773040000,1690,A2700063,8.7364,A2700007,43.3224,A2700015,43.9116,A2700013,44.5935,20241107_010153
경북,의성군,금성면,37354,경상북도 의성군 금성면 탑리길 115,금성면행정복지센터,128.681038,36.261367,4773037000,4075,A2700014,37.1817,A2700004,41.7735,A2700001,42.8189,A2700004,41.7735,20241107_010155
경북,의성군,다인면,37303,경상북도 의성군 다인면 서릉길 37,다인면행정복지센터,128.353838,36.45031,4773044000,3650,A2700063,12.6971,A2700009,28.4037,A2700023,30.2107,A2700006,36.4031,20241107_010155
경북,의성군,단밀면,37374,경상북도 의성군 단밀면 중동단밀로 949,단밀면행정복지센터,128.381763,36.376124,4773041000,1617,A2700063,8.282,A2700023,40.9471,A2700007,42.752,A2700013,44.093,20241107_010157
경북,의성군,단북면,37371,경상북도 의성군 단북면 단북다인로 168,단북면행정복지센터,128.4048944,36.3875365,4773042000,1674,A2700063,5.5,A2700023,39.5593,A2700007,44.3805,A2700013,48.3661,20241107_010158
경북,의성군,단촌면,37327,경상북도 의성군 단촌면 장터길 23,단촌면행정복지센터,128.6743162,36.4220822,4773031000,1859,A2700014,17.6591,A2700004,22.0038,A2700001,23.1301,A2700004,22.0038,20241107_010159
경북,의성군,봉양면,37362,경상북도 의성군 봉양면 도리원3길 31,봉양면행정복지센터,128.576354,36.3007596,4773038000,3859,A2700063,18.5736,A1300010,32.518,A2700014,33.3697,A1300010,32.518,20241107_010159
경북,의성군,비안면,37364,경상북도 의성군 비안면 강변길 59,비안면행정복지센터,128.490187,36.337349,4773039000,2566,A2700063,13.9183,A2700015,43.1716,A2700023,49.1565,A2700013,53.6512,20241107_010200
경북,의성군,사곡면,37347,경상북도 의성군 사곡면 의성사곡로 973,사곡면행정복지센터,128.7878463,36.3063295,4773034000,1526,A2700014,40.6892,A2700004,45.4828,A2700001,46.77,A2700004,45.4828,20241107_010202
경북,의성군,신평면,37314,경상북도 의성군 신평면 봉호로 2454,신평면행정복지센터,128.502438,36.47366,4773045000,786,A2700063,25.7535,A2700023,29.9989,A2700014,38.7056,A2700004,43.8476,20241107_010203
경북,의성군,안계면,37312,경상북도 의성군 안계면 안계길 114,안계면행정복지센터,128.439587,36.383615,4773043000,4252,A2700063,3.1769,A2700023,41.583,A2700007,46.9055,A2700013,48.4955,20241107_010204
경북,의성군,안사면,37306,경상북도 의성군 안사면 안신로 645,안사면행정복지센터,128.4616504,36.4310873,4773047000,854,A2700063,11.9957,A2700023,45.3144,A2700007,50.7966,A2700013,52.2778,20241107_010205
경북,의성군,안평면,37318,경상북도 의성군 안평면 안평의성로 36,안평면행정복지센터,128.5842,36.37674,4773046000,2056,A2700063,28.8644,A2700014,29.569,A2700004,33.7147,A2700004,33.7147,20241107_010206
경북,의성군,옥산면,37324,경상북도 의성군 옥산면 신감옥산로 1180,옥산면행정복지센터,128.8099542,36.3928291,4773033000,1705,E2700554,35.0325,A2700014,37.0045,A2700004,39.6705,A2700004,39.6705,20241107_010206
경북,의성군,의성읍,37337,경상북도 의성군 의성읍 후죽3길 5,의성읍행정복지센터,128.6946618,36.3554853,4773025000,12381,A2700014,24.1842,A2700004,28.5545,A2700001,29.712,A2700004,28.5545,20241107_010207
경북,의성군,점곡면,37321,경상북도 의성군 점곡면 점곡길 73,점곡면행정복지센터,128.7679173,36.4241006,4773032000,1517,A2700014,27.8607,A2700004,32.3496,E2700554,35.0336,A2700004,32.3496,20241107_010208
경북,의성군,춘산면,37348,경상북도 의성군 춘산면 금성현서로 1481,춘산면행정복지센터,128.8117085,36.2375392,4773035000,1488,A2700017,52.4749,A2700014,54.8689,A2700004,59.9733,A2700004,59.9733,20241107_010210
경북,청도군,각남면,38321,경상북도 청도군 각남면 각남로 74,각남면행정복지센터,128.6590647,35.641991,4782031000,2108,A2700038,10.6418,A2700019,29.2056,A1300081,32.0138,A1300009,37.5109,20241107_010211
경북,청도군,각북면,38302,경상북도 청도군 각북면 헐티로 801,각북면행정복지센터,128.58925,35.687293,4782033000,2300,A1300011,43.3054,A1300001,45.0244,A1300034,46.264,A1300004,46.018,20241107_010214
경북,청도군,금천면,38362,경상북도 청도군 금천면 선암로 575,금천면행정복지센터,128.8924165,35.6871905,4782036000,3205,A2700038,25.9757,A2700019,27.1607,A2700036,27.445,A1300009,48.6888,20241107_010215
경북,청도군,매전면,38354,경상북도 청도군 매전면 청려로 3693 ,매전면행정복지센터,128.8556081,35.6670841,4782037000,3736,A2700038,18.0031,A2700036,32.4568,A2700019,33.0655,A1300009,42.9219,20241107_010216
경북,청도군,운문면,38367,경상북도 청도군 운문면 청려로 4707 ,운문면행정복지센터,128.913125,35.715626,4782035000,1942,A2700038,28.5284,A2700019,29.6286,A2700036,30.1373,A2700003,51.8478,20241107_010218
경북,청도군,이서면,38317,경상북도 청도군 이서면 이서로 145-18,이서면행정복지센터,128.670537,35.663249,4782034000,4461,A2700038,10.2862,A2700019,27.5842,A2700036,30.7498,A1300009,33.8008,20241107_010219
경북,청도군,청도읍,38340,경상북도 청도군 청도읍 청화로 137,청도읍행정복지센터,128.7412839,35.645434,4782025300,11222,A2700038,2.8311,A2700019,21.0011,A2700036,23.9193,A1300009,31.3518,20241107_010220
경북,청도군,풍각면,38310,경상북도 청도군 풍각면 송서로 70,풍각면행정복지센터,128.6183686,35.6388822,4782032000,3725,A2700038,14.2908,A1300011,40.7038,A1300001,42.7666,A1300004,43.162,20241107_010222
경북,청도군,화양읍,38334,경상북도 청도군 화양읍 도주관로 159,화양읍행정복지센터,128.706138,35.649865,4782025000,8079,A2700038,6.1192,A2700019,23.3932,A2700036,26.3112,A1300009,33.8071,20241107_010223
경북,청송군,부남면,37443,경상북도 청송군 부남면 대전로 119,부남면행정복지센터,129.063312,36.344624,4775032000,2371,E2700554,15.3251,A2700026,45.6864,A2700008,61.233,A2700003,77.097,20241107_010224
경북,청송군,안덕면,37451,경상북도 청송군 안덕면 안덕로 82,안덕면행정복지센터,128.9599555,36.2889767,4775035000,2453,E2700554,28.2723,A2700004,48.2893,A2700001,48.7603,A2700004,48.2893,20241107_010226
경북,청송군,주왕산면,37438,경상북도 청송군 주왕산면 이전앞길 1,주왕산면행정복지센터,129.1593984,36.3568891,4775031500,1784,E2700554,22.3261,A2700026,50.9167,A2700008,75.3922,A2700002,80.4941,20241107_010227
경북,청송군,진보면,37405,경상북도 청송군 진보면 진안동2길 4-10,진보면행정복지센터,129.046675,36.529475,4775037000,6211,E2700554,17.3718,A2700026,21.4074,A2700001,39.498,A2700004,40.3522,20241107_010228
경북,청송군,청송읍,37429,경상북도 청송군 청송읍 중앙로 253,청송읍행정복지센터,129.0567498,36.434162,4775025000,4870,E2700554,1.8093,A2700026,35.2577,A2700004,36.5757,A2700004,36.5757,20241107_010229
경북,청송군,파천면,37416,경상북도 청송군 파천면 청송로 5544,파천면행정복지센터,129.037813,36.463051,4775036000,1669,E2700554,6.2463,A2700026,26.7011,A2700014,28.7195,A2700004,30.1015,20241107_010230
경북,청송군,현동면,37456,경상북도 청송군 현동면 청송로 2647,현동면행정복지센터,129.016838,36.290667,4775033000,2023,E2700554,21.8964,A2700026,52.8631,A2700001,54.8434,A2700003,67.2221,20241107_010231
경북,청송군,현서면,37462,경상북도 청송군 현서면 구산동로 27,현서면행정복지센터,128.895937,36.2758773,4775034000,2395,E2700554,36.3633,A2700017,42.8284,A2700014,42.8643,A2700004,43.6995,20241107_010233
경북,칠곡군,가산면,39852,경상북도 칠곡군 가산면 경북대로 1570,가산면행정복지센터,128.5389035,36.085977,4785033000,3217,A2700015,16.2464,A1300010,17.0884,A1300005,19.3072,A1300009,17.0102,20241107_010234
경북,칠곡군,기산면,39914,경상북도 칠곡군 기산면 주산로 1213,기산면행정복지센터,128.382786,35.9863749,4785037000,2955,A2700066,5.8406,A2700030,13.0722,A2700013,17.4996,A2700013,17.4996,20241107_010234
경북,칠곡군,동명면,39859,경상북도 칠곡군 동명면 금암중앙길 56,동명면행정복지센터,128.5534526,35.9840481,4785032000,5071,A1300010,7.2838,A1300005,9.7734,A1300007,23.2476,A1300010,7.2838,20241107_010236
경북,칠곡군,북삼읍,39808,경상북도 칠곡군 북삼읍 인평1길 6,북삼읍행정복지센터,128.3429453,36.0629252,4785025300,23294,A2700013,12.1235,A2700066,13.1379,A2700007,14.4042,A2700013,12.1235,20241107_010236
경북,칠곡군,석적읍,39844,경상북도 칠곡군 석적읍 남율로7길 7,석적읍행정복지센터,128.4010545,36.0667815,4785025600,30264,A2700066,10.0431,A2700013,10.4179,A2700015,12.3997,A2700013,10.4179,20241107_010237
경북,칠곡군,약목면,39824,경상북도 칠곡군 약목면 복성1길 15,약목면행정복지센터,128.363738,36.03275,4785036000,8780,A2700066,7.9673,A2700013,16.5939,A2700030,16.9381,A2700013,16.5939,20241107_010238
경북,칠곡군,왜관읍,39895,"경상북도 칠곡군 석적읍 강변대로 1580, 컨벤션홀 (임시청사)",왜관읍행정복지센터,128.4040784,36.0178781,4785025000,30739,A2700066,6.0964,A2700013,16.3562,A2700015,19.2146,A2700013,16.3562,20241107_010238
경북,칠곡군,지천면,39864,경상북도 칠곡군 지천면 신동로 171,지천면행정복지센터,128.4910544,35.9562001,4785031000,3799,A1300005,15.1886,A1300010,18.5426,A1300003,20.7791,A1300010,18.5426,20241107_010239
경북,포항시 남구,구룡포읍,37936,경상북도 포항시 남구 구룡포읍 호미로 133,구룡포읍행정복지센터,129.5461489,35.9851252,4711125000,6695,A2700002,22.2938,A2700008,25.4571,A2700016,26.5358,A2700002,22.2938,20241107_010241
경북,포항시 남구,대송면,37857,경상북도 포항시 남구 대송면 장동홍계길 19,대송면행정복지센터,129.359925,35.968501,4711131000,3148,A2700008,11.4865,A2700016,13.1946,A2700002,13.9905,A2700002,13.9905,20241107_010242
경북,포항시 남구,대이동,37685,경상북도 포항시 남구 대이로 17,대이동행정복지센터,129.3429899,36.0172502,4711159000,24410,A2700016,3.3673,A2700008,4.9241,A2700002,9.2165,A2700002,9.2165,20241107_010243
경북,포항시 남구,동해면,37926,경상북도 포항시 남구 동해면 일월로 66,동해면행정복지센터,129.4401691,35.9884726,4711132000,9310,A2700002,15.241,A2700016,19.7598,A2702563,21.3562,A2700002,15.241,20241107_010244
경북,포항시 남구,상대동,37766,경상북도 포항시 남구 상대로 98,상대동행정복지센터,129.3569633,36.0140192,4711152500,23278,A2700002,3.8777,A2700016,6.6238,A2700008,9.3953,A2700002,3.8777,20241107_010245
경북,포항시 남구,송도동,37800,경상북도 포항시 남구 송림로 25,송도동행정복지센터,129.3786677,36.0361131,4711155000,11325,A2702563,6.9419,A2700002,8.6219,A2700005,9.4725,A2700002,8.6219,20241107_010246
경북,포항시 남구,연일읍,37852,경상북도 포항시 남구 연일읍 철강로 10,연일읍행정복지센터,129.3441,35.991618,4711125300,28398,A2700016,8.2553,A2700008,11.0453,A2700002,11.7495,A2700002,11.7495,20241107_010246
경북,포항시 남구,오천읍,37912,경상북도 포항시 남구 오천읍 세계길 5,오천읍행정복지센터,129.4146597,35.9631672,4711125600,57335,A2700002,17.8187,A2700008,18.4227,A2700016,19.2255,A2700002,17.8187,20241107_010247
경북,포항시 남구,장기면,37945,경상북도 포항시 남구 장기면 읍내길 99,장기면행정복지센터,129.49229,35.8957657,4711133000,3796,A2700008,32.7405,A2700016,33.9486,A2700002,35.3517,A2700002,35.3517,20241107_010248
경북,포항시 남구,제철동,37878,경상북도 포항시 남구 인덕로 79,제철동행정복지센터,129.397125,35.992318,4711157000,2325,A2700002,8.3788,A2700016,13.183,A2702563,14.7075,A2700002,8.3788,20241107_010249
경북,포항시 남구,청림동,37920,경상북도 포항시 남구 신항로 10,청림동행정복지센터,129.4056856,35.9973642,4711156000,4716,A2700002,11.5077,A2700016,16.1021,A2702563,17.7173,A2700002,11.5077,20241107_010250
경북,포항시 남구,해도동,37795,경상북도 포항시 남구 상공로 235,해도동행정복지센터,129.3714395,36.0232746,4711154500,16203,A2700002,4.8757,A2702563,9.0465,A2700005,10.5232,A2700002,4.8757,20241107_010250
경북,포항시 남구,호미곶면,37928,경상북도 포항시 남구 호미곶면 해맞이로 242,호미곶면행정복지센터,129.5555306,36.0808541,4711135000,1696,A2700002,32.7041,A2700008,36.1229,A2700016,36.1956,A2700002,32.7041,20241107_010252
경북,포항시 남구,효곡동,37664,경상북도 포항시 남구 효자동길 30,효곡동행정복지센터,129.3294116,36.0103335,4711158000,29541,A2700016,4.9755,A2700008,8.4832,A2700002,11.6349,A2700002,11.6349,20241107_010252
경북,포항시 북구,기계면,37528,경상북도 포항시 북구 기계면 근면길 14,기계면행정복지센터,129.21025,36.072433,4711334000,4809,A2700008,13.0834,A2700016,17.5038,A2700005,18.7338,A2700003,28.0728,20241107_010253
경북,포항시 북구,기북면,37524,경상북도 포항시 북구 기북면 기북로 443,기북면행정복지센터,129.16635,36.128582,4711336000,1301,A2700008,22.5689,A2700016,26.7103,A2700005,28.0709,A2700003,37.1027,20241107_010255
경북,포항시 북구,두호동,37708,경상북도 포항시 북구 삼호로 260,두호동행정복지센터,129.3800726,36.06092,4711369000,21499,A2702563,6.448,A2700005,13.419,A2700002,14.1336,A2700002,14.1336,20241107_010255
경북,포항시 북구,송라면,37511,경상북도 포항시 북구 송라면 보경로 56,송라면행정복지센터,129.3569449,36.2288341,4711333000,2373,A2702563,23.112,A2700008,23.3176,A2700005,25.776,A2700002,29.3312,20241107_010256
경북,포항시 북구,신광면,37522,경상북도 포항시 북구 신광면 토성길37번길 13,신광면행정복지센터,129.2629066,36.1301355,4711331000,2762,A2700008,21.0883,A2702563,21.1309,A2700005,23.5982,A2700002,27.248,20241107_010258
경북,포항시 북구,양학동,37695,경상북도 포항시 북구 양학로17번길 4,양학동행정복지센터,129.35035,36.025292,4711363000,16735,A2700005,5.5178,A2700002,6.1008,A2700008,6.2578,A2700002,6.1008,20241107_010258
경북,포항시 북구,용흥동,37652,경상북도 포항시 북구 새마을로 20,용흥동행정복지센터,129.3576629,36.038331,4711366500,20214,A2700005,4.1513,A2702563,4.8812,A2700002,7.5915,A2700002,7.5915,20241107_010259
경북,포항시 북구,우창동,37636,경상북도 포항시 북구 우창동로 24,우창동행정복지센터,129.3617193,36.0546798,4711368000,31917,A2702563,5.0416,A2700005,7.5333,A2700008,10.0921,A2700002,10.6267,20241107_010259
경북,포항시 북구,장량동,37586,경상북도 포항시 북구 장량로 50,장량동행정복지센터,129.3859196,36.0819654,4711370000,68777,A2702563,12.3914,A2700008,14.2708,A2700005,14.984,A2700002,18.4724,20241107_010300
경북,포항시 북구,죽도동,37744,경상북도 포항시 북구 죽도로40번길 28,죽도동행정복지센터,129.3631924,36.0312323,4711365500,18949,A2700005,5.1907,A2702563,6.4113,A2700002,7.1942,A2700002,7.1942,20241107_010300
경북,포항시 북구,죽장면,37507,경상북도 포항시 북구 죽장면 새마을로 3610,죽장면행정복지센터,129.095775,36.160182,4711335000,2655,A2700008,31.2032,E2700554,38.7879,A2700017,44.282,A2700003,45.5446,20241107_010301
경북,포항시 북구,중앙동,37718,경상북도 포항시 북구 학산로 54,중앙동행정복지센터,129.368524,36.0493963,4711352000,14070,A2702563,3.4026,A2700005,10.1729,A2700002,11.851,A2700002,11.851,20241107_010302
경북,포항시 북구,청하면,37515,경상북도 포항시 북구 청하면 청하로217번길 22,청하면행정복지센터,129.3407879,36.201124,4711332000,4444,A2702563,21.7337,A2700008,21.8188,A2700005,24.2177,A2700002,27.8458,20241107_010303
경북,포항시 북구,환여동,37601,경상북도 포항시 북구 삼호로 400,환여동행정복지센터,129.3917767,36.0682046,4711371000,8847,A2702563,8.5881,A2700005,15.4499,A2700002,15.9764,A2700002,15.9764,20241107_010304
경북,포항시 북구,흥해읍,37544,경상북도 포항시 북구 흥해읍 동해대로 1511,흥해읍행정복지센터,129.341663,36.107199,4711325000,50513,A2700008,12.4647,A2702563,12.5668,A2700005,15.0556,A2700002,18.783,20241107_010305
대구,군위군,군위읍,43114,대구광역시 군위군 군위읍 중앙길 134,군위읍행정복지센터,128.5687564,36.2399427,2772025000,7855,A2700063,25.1642,A1300010,27.8211,A1300005,29.6519,A1300010,27.8211,20241107_010306
대구,군위군,부계면,43162,대구광역시 군위군 부계면 창평길 3,부계면행정복지센터,128.663725,36.1007737,2772033000,2085,A1300010,30.4786,A1300005,33.0967,A1300018,42.7075,A1300010,30.4786,20241107_010308
대구,군위군,산성면,43158,대구광역시 군위군 산성면 산성가음로 668,산성면행정복지센터,128.6948951,36.1230536,2772036000,1181,A1300010,29.4211,A1300018,40.7852,A1300009,42.0056,A1300010,29.4211,20241107_010310
대구,군위군,삼국유사면,43155,대구광역시 군위군 삼국유사면 삼국유사로 448,삼국유사면행정복지센터,128.7949095,36.1233928,2772037000,1299,A2700017,27.3148,A1300018,48.0724,A1300081,50.047,A1300010,44.5681,20241107_010313
대구,군위군,소보면,43102,대구광역시 군위군 소보면 송백로 1415,소보면행정복지센터,128.4752186,36.2549903,2772031000,2275,A2700063,26.6933,A2700015,33.3918,A2700013,34.4194,A2700013,34.4194,20241107_010314
대구,군위군,우보면,43142,대구광역시 군위군 우보면 이화길 105,우보면행정복지센터,128.661788,36.194985,2772034000,1926,A1300010,33.5624,A1300005,35.257,A1300009,47.3457,A1300009,33.475,20241107_010316
대구,군위군,의흥면,43149,대구광역시 군위군 의흥면 읍내길 39,의흥면행정복지센터,128.7154143,36.1759366,2772035000,2273,A1300010,40.4005,A1300018,52.1226,A1300009,53.296,A1300010,40.4005,20241107_010318
대구,군위군,효령면,43129,대구광역시 군위군 효령면 치산효령로 2400,호령면행정복지센터,128.5854,36.156865,2772032000,3664,A2700015,25.5852,A1300010,26.2249,A1300005,27.9888,A1300009,26.1366,20241107_010320
대구,남구,대명1.0동,42481,대구광역시 남구 대명복개로4길 166,대명10동행정복지센터,128.5689436,35.8399455,2720065000,8334,A1300034,2.8231,A1300004,3.2839,A1300076,6.3351,A1300004,3.2839,20241107_010320
대구,남구,대명1.1동,42497,대구광역시 남구 관문시장4길 53,대명11동행정복지센터,128.5605798,35.8362311,2720066000,7590,A1300034,4.8309,A1300045,5.7399,A1300004,6.8729,A1300004,6.8729,20241107_010321
대구,남구,대명1동,42470,대구광역시 남구 두류공원로 38,대명1동행정복지센터,128.573572,35.8417184,2720056000,9904,A1300034,1.3504,A1300004,1.7637,A1300076,4.8149,A1300004,1.7637,20241107_010321
대구,남구,대명2동,42409,대구광역시 남구 명덕로32길 30,대명2동행정복지센터,128.586625,35.855299,2720057100,11878,A1300001,5.3029,A1303386,5.6107,A1300076,7.391,A1300009,13.0571,20241107_010322
대구,남구,대명3동,42408,대구광역시 남구 명덕로20길 115,대명3동행정복지센터,128.5790477,35.8522949,2720058600,9594,A1300076,3.4307,A1300001,4.0418,A1300034,5.7975,A1300004,5.9353,20241107_010322
대구,남구,대명4동,42460,대구광역시 남구 두류공원로20길 19,대명4동행정복지센터,128.5695253,35.8459699,2720059000,9788,A1300004,3.238,A1300076,3.3581,A1300034,3.6468,A1300004,3.238,20241107_010324
대구,남구,대명5동,42449,대구광역시 남구 대명로58길 11,대명5동행정복지센터,128.587787,35.84319,2720060000,5409,A1300001,3.9851,A1300034,5.7447,A1303386,9.4218,A1300004,7.2235,20241107_010324
대구,남구,대명6동,42494,대구광역시 남구 대명남로 73,대명6동행정복지센터,128.5660381,35.8351195,2720061000,10913,A1300034,5.1819,A1300045,5.9591,A1300004,7.2239,A1300004,7.2239,20241107_010325
대구,남구,대명9동,42488,대구광역시 남구 큰골길 53,대명9동행정복지센터,128.579184,35.8372793,2720064000,13809,A1300034,3.4016,A1300001,3.6089,A1300004,4.8804,A1300004,4.8804,20241107_010325
대구,남구,봉덕1동,42429,대구광역시 남구 봉덕로 51-2,봉덕1동행정복지센터,128.5964247,35.8452937,2720053000,8094,A1300001,3.7279,A1300034,5.3065,A1303386,9.1646,A1300004,6.7853,20241107_010326
대구,남구,봉덕2동,42442,대구광역시 남구 이천로10길 50,봉덕2동행정복지센터,128.6010957,35.8438162,2720054000,13177,A1300001,4.8354,A1300002,7.8157,A1300033,8.1381,A1300009,7.6607,20241107_010327
대구,남구,봉덕3동,42447,대구광역시 남구 중앙대로22길 100,봉덕3동행정복지센터,128.5959657,35.8424172,2720055000,14773,A1300001,5.033,A1300034,6.2569,A1300002,8.7554,A1300009,7.5037,20241107_010327
대구,남구,이천동,42431,대구광역시 남구 이천로28길 18,이천동행정복지센터,128.5994252,35.8537107,2720051500,12694,A1300002,5.2076,A1300001,6.9462,A1300033,8.3878,A1300009,11.0951,20241107_010328
대구,달서구,감삼동,42644,대구광역시 달서구 감삼북길 119-10,감삼동행정복지센터,128.5421798,35.8510442,2729055500,30432,A1300006,0.5617,A1300110,1.0466,A1300007,4.9841,A1300004,7.8731,20241107_010328
대구,달서구,도원동,42832,대구광역시 달서구 한실로 53,도원동행정복지센터,128.5321772,35.8074544,2729062800,32422,A1300038,7.9437,A1300011,8.1065,A1300045,11.5621,A1300004,16.8059,20241107_010331
대구,달서구,두류1.2동,42664,대구광역시 달서구 두류길 141-8,두류1·2동행정복지센터,128.5672859,35.8577618,2729053500,14432,A1300076,4.8696,A1300004,6.4397,A1300034,6.8486,A1300004,6.4397,20241107_010332
대구,달서구,두류3동,42648,대구광역시 달서구 야외음악당로39길 24,두류3동행정복지센터,128.5554722,35.8537,2729055000,8498,A1300110,6.0441,A1300006,6.4765,A1300004,7.1291,A1300004,7.1291,20241107_010333
대구,달서구,본동,42733,대구광역시 달서구 구마로26길 62,본동행정복지센터,128.5410486,35.8344418,2729065000,11893,A1300110,5.5782,A1300006,5.6103,A1300045,7.264,A1300004,9.0771,20241107_010333
대구,달서구,본리동,42675,대구광역시 달서구 당산로 37-14,본리동행정복지센터,128.5431592,35.8409942,2729059000,22189,A1300110,5.1188,A1300006,5.1509,A1300045,7.3951,A1300004,8.8348,20241107_010334
대구,달서구,상인1동,42812,대구광역시 달서구 상인서로 40,상인1동행정복지센터,128.5450203,35.8142582,2729062400,33344,A1300011,5.1418,A1300045,6.0747,A1300038,6.3722,A1300004,12.1501,20241107_010335
대구,달서구,상인2동,42790,대구광역시 달서구 상원로 27,상인2동행정복지센터,128.536239,35.8124428,2729062500,17788,A1300038,5.022,A1300011,6.2855,A1300045,8.4457,A1300004,12.5776,20241107_010336
대구,달서구,상인3동,42815,대구광역시 달서구 월곡로26안길 3,상인3동행정복지센터,128.5507233,35.8088299,2729062600,10011,A1300011,3.1528,A1300038,6.6152,A1300045,7.307,A1300004,13.9985,20241107_010338
대구,달서구,성당동,42678,대구광역시 달서구 야외음악당로 38,성당동행정복지센터,128.5530987,35.8405861,2729051500,21247,A1300045,4.8568,A1300004,6.67,A1300110,6.8055,A1300004,6.67,20241107_010338
대구,달서구,송현1동,42819,대구광역시 달서구 중흥로8길 41,송현1동행정복지센터,128.5547037,35.829258,2729063000,16788,A1300045,1.913,A1300011,7.3238,A1300004,8.1256,A1300004,8.1256,20241107_010339
대구,달서구,송현2동,42738,대구광역시 달서구 월배로83길 120-14,송현2동행정복지센터,128.5455794,35.8327884,2729064000,18361,A1300045,3.4868,A1300006,7.1759,A1300110,7.5815,A1300004,8.2619,20241107_010340
대구,달서구,신당동,42609,대구광역시 달서구 선원로 60,신당동행정복지센터,128.4988313,35.8589725,2729058500,28881,A1300003,5.4935,A1300007,9.1671,A1300006,11.5686,A1300003,5.4935,20241107_010341
대구,달서구,용산1동,42631,대구광역시 달서구 용산로 212-7,용산1동행정복지센터,128.5312224,35.8566653,2729057100,29031,A1300007,3.315,A1300006,5.1925,A1300110,5.3876,A1300003,11.5359,20241107_010342
대구,달서구,용산2동,42617,대구광역시 달서구 선원로 278,용산2동행정복지센터,128.5229863,35.8584246,2729057200,25906,A1300007,3.9475,A1300006,6.2261,A1300110,6.4212,A1300003,11.5052,20241107_010343
대구,달서구,월성1동,42778,대구광역시 달서구 조암남로 97,월성1동행정복지센터,128.522854,35.8195264,2729060100,40208,A1300038,7.375,A1300011,9.7074,A1300110,10.9062,A1300004,15.623,20241107_010345
대구,달서구,월성2동,42732,대구광역시 달서구 월성로 65,월성2동행정복지센터,128.5282856,35.8309462,2729060200,14127,A1300006,7.4505,A1300110,7.6456,A1300038,8.952,A1300003,11.8986,20241107_010346
대구,달서구,유천동,42761,대구광역시 달서구 조암로 175,유천동행정복지센터,128.5139392,35.8172537,2729061700,33372,A1300038,6.3566,A1300006,11.394,A1300110,11.4085,A1300003,11.9625,20241107_010348
대구,달서구,이곡1동,42620,대구광역시 달서구 달구벌대로 1309,이곡1동행정복지센터,128.5106609,35.8516505,2729057600,20664,A1300003,5.8601,A1300006,6.9336,A1300110,7.1287,A1300003,5.8601,20241107_010351
대구,달서구,이곡2동,42611,대구광역시 달서구 계대동문로 77,이곡2동행정복지센터,128.5007228,35.8557404,2729057700,14807,A1300003,5.8591,A1300007,10.0132,A1300006,10.9586,A1300003,5.8591,20241107_010352
대구,달서구,장기동,42691,대구광역시 달서구 장기로 277,장기동행정복지센터,128.5299774,35.8433525,2729056800,15545,A1300110,4.268,A1300006,4.3001,A1300007,7.4837,A1300004,10.9378,20241107_010354
대구,달서구,죽전동,42638,대구광역시 달서구 죽전1길 176,죽전동행정복지센터,128.5390666,35.8565871,2729056300,14346,A1300007,2.6559,A1300006,4.1667,A1300110,4.2818,A1300004,10.1041,20241107_010356
대구,달서구,진천동,42772,대구광역시 달서구 진천로9길 33,진천동행정복지센터,128.5228173,35.8122129,2729061500,49420,A1300038,2.2228,A1300045,8.5387,A1300011,9.6971,A1300004,13.8192,20241107_010358
대구,달성군,가창면,42934,대구광역시 달성군 가창면 가창로 1100,가창면행정복지센터,128.6228183,35.8026898,2771031000,7074,A1300002,9.5561,A1300033,10.5924,A1300001,12.5776,A1300009,13.2443,20241107_010359
대구,달성군,구지면,43010,대구광역시 달성군 구지면 창리로11길 38,구지면행정복지센터,128.4136123,35.6587771,2771038000,19083,A1303449,9.5688,A1300038,25.1364,A2700070,25.3903,A1300003,28.414,20241107_010400
대구,달성군,논공읍,42968,대구광역시 달성군 논공읍 비슬로 1779,논공읍행정복지센터,128.4199139,35.7743052,2771025300,15808,A1303449,18.2756,A1300006,21.1213,A1300038,21.1498,A1300003,25.6136,20241107_010403
대구,달성군,다사읍,42916,대구광역시 달성군 다사읍 매곡로 7,다사읍행정복지센터,128.4539279,35.8618434,2771025600,90891,A1300003,6.778,A1300038,16.9868,A1300006,17.7365,A1300003,6.778,20241107_010404
대구,달성군,옥포읍,42970,대구광역시 달성군 옥포읍 비슬로 2215,옥포읍행정복지센터,128.4640097,35.7892427,2771026200,23299,A1300006,13.2809,A1300038,13.7336,A1303449,17.2878,A1300003,17.8815,20241107_010405
대구,달성군,유가읍,43015,대구광역시 달성군 유가읍 테크노상업로 95,유가읍행정복지센터,128.4598163,35.6939301,2771025900,31142,A1303449,5.3013,A1300038,19.8112,A1300011,21.9086,A1300003,28.7712,20241107_010407
대구,달성군,하빈면,42902,대구광역시 달성군 하빈면 하빈로84길 1,하빈면행정복지센터,128.4455026,35.9009231,2771033000,3318,A1300003,13.7,A2700066,18.8126,A1300006,20.5255,A1300003,13.7,20241107_010409
대구,달성군,현풍읍,42998,대구광역시 달성군 현풍읍 비슬로134길 157,현풍읍행정복지센터,128.4476094,35.6974654,2771026500,21883,A1303449,6.9304,A1300038,20.356,A1300006,21.9743,A1300003,26.6118,20241107_010410
대구,달성군,화원읍,42957,대구광역시 달성군 화원읍 화암로 10 (임시청사),화원읍행정복지센터,128.4896829,35.7978101,2771025000,45769,A1300038,10.6382,A1300011,12.7705,A1300006,14.7088,A1300003,18.668,20241107_010412
대구,동구,공산동,41005,대구광역시 동구 팔공로91길 9,공산동행정복지센터,128.6441922,35.9401899,2714076000,20488,A1300018,13.6007,A1300009,14.647,A1300002,19.7349,A1300009,13.5967,20241107_010414
대구,동구,도평동,41031,대구광역시 동구 팔공로24길 171,도평동행정복지센터,128.6501392,35.9099797,2714061500,3653,A1300018,11.1823,A1300009,12.2704,A1300033,17.6988,A1300009,12.2704,20241107_010415
대구,동구,동촌동,41143,대구광역시 동구 동촌로11길 5,동촌동행정복지센터,128.6496347,35.8899364,2714065500,14473,A1300018,3.721,A1300009,7.1505,A1300033,13.0285,A1300009,7.1505,20241107_010417
대구,동구,방촌동,41162,대구광역시 동구 동촌로48길 26,방촌동행정복지센터,128.6652466,35.8800556,2714067000,17458,A1300018,3.3405,A1300009,8.6079,A1300033,10.0006,A1300009,8.6079,20241107_010417
대구,동구,불로.봉무동,41035,대구광역시 동구 팔공로25길 16,불로·봉무동행정복지센터,128.6393269,35.9102497,2714062000,19925,A1300018,8.9981,A1300009,9.8556,A1300033,15.5875,A1300009,9.8556,20241107_010418
대구,동구,신암1동,41196,대구광역시 동구 아양로7길 27,신암1동행정복지센터,128.6163562,35.8843012,2714051000,11065,A1300009,3.3501,A1300033,6.1462,A1300008,9.4411,A1300009,3.3501,20241107_010419
대구,동구,신암2동,41202,대구광역시 동구 신성로 56,신암2동행정복지센터,128.6126639,35.88005,2714052000,11744,A1300009,4.4893,A1300033,5.1989,A1300008,8.3565,A1300009,4.4893,20241107_010419
대구,동구,신암3동,41211,대구광역시 동구 신암남로 67,신암3동행정복지센터,128.6231349,35.8796635,2714053000,11278,A1300009,3.0186,A1300033,6.3145,A1300002,9.0628,A1300009,3.0186,20241107_010420
대구,동구,신암4동,41217,대구광역시 동구 신암남로23길 53,신암4동행정복지센터,128.6293226,35.8850672,2714054000,18131,A1300009,2.6725,A1300018,7.16,A1300033,8.5485,A1300009,2.6725,20241107_010420
대구,동구,신암5동,41182,대구광역시 동구 아양로37길 92,신암5동행정복지센터,128.6330879,35.8897669,2714054100,7618,A1300009,4.7521,A1300018,7.812,A1300033,10.7612,A1300009,4.7521,20241107_010421
대구,동구,신천1.2동,41267,대구광역시 동구 국채보상로159길 41,신천1·2동행정복지센터,128.615241,35.8707546,2714055500,11555,A1300033,2.5299,A1300002,5.9474,A1300008,6.3895,A1300009,7.7464,20241107_010421
대구,동구,신천3동,41256,대구광역시 동구 장등로 90,신천3동행정복지센터,128.6235913,35.8754258,2714057000,14377,A1300009,2.727,A1300033,4.5512,A1300008,7.6315,A1300009,2.727,20241107_010422
대구,동구,신천4동,41248,대구광역시 동구 동부로30길 61-7,신천4동행정복지센터,128.6293,35.8717571,2714058000,10231,A1300009,5.1436,A1300033,5.4552,A1300002,8.2035,A1300009,5.1436,20241107_010422
대구,동구,안심1동,41119,대구광역시 동구 율하동로25길 5,안심1동행정복지센터,128.7016363,35.8703932,2714072000,38398,A1300018,8.94,A1300081,10.3453,A2700036,11.618,A1300009,14.3253,20241107_010423
대구,동구,안심2동,41124,대구광역시 동구 반야월로1길 28,안심2동행정복지센터,128.6870351,35.8754157,2714073000,16090,A1300018,4.3464,A1300009,11.5562,A1300081,11.8441,A1300009,11.5562,20241107_010423
대구,동구,안심3동,41087,"대구광역시 동구 안심로 368, 2층",안심3동행정복지센터,128.7246224,35.8678287,2714074200,20318,A1300081,11.4893,A2700036,12.7896,A1300018,13.8581,A1300009,18.6205,20241107_010424
대구,동구,안심4동,41112,대구광역시 동구 안심로49길 98,안심4동행정복지센터,128.7110557,35.8701262,2714074700,26877,A1300081,8.9504,A1300018,10.1932,A2700036,10.6921,A1300009,16.0914,20241107_010425
대구,동구,지저동,41049,대구광역시 동구 해동로3길 80,지저동행정복지센터,128.6382862,35.8933795,2714064000,13157,A1300018,6.1242,A1300009,6.2647,A1300033,11.9263,A1300009,6.2647,20241107_010426
대구,동구,해안동,41135,대구광역시 동구 방촌로29길 46,해안동행정복지센터,128.6715962,35.8821236,2714068500,13747,A1300018,2.4524,A1300009,10.8631,A1300033,11.929,A1300009,10.8631,20241107_010426
대구,동구,혁신동,41112,대구광역시 동구 이노밸리로26길 8,혁신동행정복지센터,128.7114986,35.8780289,2714075500,17178,A1300018,9.7086,A1300081,11.5251,A2700036,12.6794,A1300009,16.4038,20241107_010427
대구,동구,효목1동,41176,대구광역시 동구 화랑로41길 46,효목1동행정복지센터,128.6448881,35.8816208,2714059000,12018,A1300009,7.0602,A1300018,8.1579,A1300033,9.0556,A1300009,7.0602,20241107_010428
대구,동구,효목2동,41232,대구광역시 동구 화랑로25길 45,효목2동행정복지센터,128.6413229,35.8781211,2714060000,13619,A1300009,6.2933,A1300033,7.3665,A1300018,7.906,A1300009,6.2933,20241107_010428
대구,북구,검단동,41511,대구광역시 북구 검단로 230,검단동행정복지센터,128.6297538,35.9137739,2723068000,5797,A1300009,10.666,A1300018,14.9764,A1300002,15.8132,A1300009,10.666,20241107_010429
대구,북구,고성동,41595,대구광역시 북구 고성로31길 21,고성동행정복지센터,128.5835804,35.881913,2723051000,12261,A1300008,6.2853,A1303386,8.3597,A1300002,10.4809,A1300009,10.2402,20241107_010430
대구,북구,관문동,41488,대구광역시 북구 매천로18길 34,관문동행정복지센터,128.542088,35.901665,2723071500,33285,A1300005,7.7773,A1300007,12.9378,A1300006,13.1192,A1300010,13.8498,20241107_010431
대구,북구,관음동,41441,대구광역시 북구 관음동로 125,관음동행정복지센터,128.5473053,35.9442427,2723075000,14726,A1300005,4.0581,A1300010,6.6267,A1300006,17.064,A1300010,6.6267,20241107_010432
대구,북구,구암동,41428,대구광역시 북구 구암서로 32,구암동행정복지센터,128.566043,35.9389057,2723074500,31973,A1300010,6.8108,A1300005,6.9069,A1300008,18.9789,A1300010,6.8108,20241107_010434
대구,북구,국우동,41418,대구광역시 북구 구리로 188,국우동행정복지센터,128.5793409,35.9516391,2723080000,30374,A1300010,5.5202,A1300005,9.0615,A1300002,15.9167,A1300010,5.5202,20241107_010435
대구,북구,노원동,41558,대구광역시 북구 노원로10길 166,노원동행정복지센터,128.576228,35.89014,2723079000,11233,A1300008,10.6149,A1303386,12.1773,A1300076,13.6574,A1300009,11.3187,20241107_010436
대구,북구,대현동,41573,대구광역시 북구 대현남로 25,대현동행정복지센터,128.6054161,35.8819333,2723064500,16056,A1300009,5.3711,A1300033,7.8704,A1300008,9.2382,A1300009,5.3711,20241107_010436
대구,북구,동천동,41427,대구광역시 북구 대천로 81,동천동행정복지센터,128.5580729,35.9372162,2723078000,25901,A1300005,4.1345,A1300010,7.5977,A1300007,18.2991,A1300010,7.5977,20241107_010437
대구,북구,무태조야동,41475,대구광역시 북구 호국로43길 20,무태조야동행정복지센터,128.5970987,35.9213384,2723069500,33783,A1300002,10.2843,A1300033,10.8878,A1300009,11.0404,A1300009,11.0404,20241107_010438
대구,북구,복현1동,41564,대구광역시 북구 동북로52길 7,복현1동행정복지센터,128.61855,35.893749,2723067100,6985,A1300009,3.9755,A1300033,9.9847,A1300002,13.86,A1300009,3.9755,20241107_010439
대구,북구,복현2동,41528,대구광역시 북구 복현로8길 16-5,복현2동행정복지센터,128.6254438,35.8954566,2723067200,29212,A1300009,5.7943,A1300018,10.1202,A1300033,11.8035,A1300009,5.7943,20241107_010440
대구,북구,산격1동,41533,대구광역시 북구 연암로 36길 6,산격1동행정복지센터,128.5969732,35.9003822,2723061000,7945,A1300009,7.3157,A1300002,8.5131,A1300033,9.129,A1300009,7.3157,20241107_010441
대구,북구,산격2동,41519,대구광역시 북구 동북로31길 30,산격2동행정복지센터,128.6092594,35.9017014,2723062000,9864,A1300009,7.8778,A1300002,11.4194,A1300033,11.9595,A1300009,7.8778,20241107_010442
대구,북구,산격3동,41544,대구광역시 북구 대학로 95(임시청사),산격3동행정복지센터,128.6101674,35.8936497,2723063000,8430,A1300009,5.9769,A1300008,9.7906,A1300002,10.0403,A1300009,5.9769,20241107_010443
대구,북구,산격4동,41543,대구광역시 북구 대구체육관로 48,산격4동행정복지센터,128.6042805,35.8922712,2723063100,7432,A1300009,7.2054,A1300002,9.4798,A1300008,9.6047,A1300009,8.2689,20241107_010444
대구,북구,읍내동,41439,대구광역시 북구 칠곡중앙대로 561,읍내동행정복지센터,128.5505268,35.9459215,2723077000,24499,A1300005,3.2646,A1300010,5.2983,A1300110,17.426,A1300010,5.2983,20241107_010445
대구,북구,칠성동,41578,대구광역시 북구 칠성로19길 4,칠성동행정복지센터,128.5999257,35.8791089,2723052600,21630,A1300008,5.3145,A1300033,7.3557,A1300009,7.4056,A1300009,7.4056,20241107_010445
대구,북구,침산1동,41551,대구광역시 북구 침산남로13길 16,침산1동행정복지센터,128.581175,35.8903321,2723055000,3607,A1300002,10.4529,A1300008,11.0789,A1303386,11.7455,A1300009,12.0626,20241107_010446
대구,북구,침산2동,41561,대구광역시 북구 침산남로 195,침산2동행정복지센터,128.5969766,35.8872842,2723056000,17237,A1300008,7.1833,A1300002,7.3976,A1300009,8.0782,A1300009,8.0782,20241107_010447
대구,북구,침산3동,41550,대구광역시 북구 성북로 55,침산3동행정복지센터,128.5894316,35.89206,2723057000,18313,A1300002,6.4461,A1300008,7.9205,A1303386,11.2584,A1300009,9.1769,20241107_010448
대구,북구,태전1동,41456,대구광역시 북구 태전로7길 10-24,태전1동행정복지센터,128.5431895,35.9240581,2723072500,21695,A1300005,4.8744,A1300010,9.9887,A1300006,13.1993,A1300010,9.9887,20241107_010449
대구,북구,태전2동,41466,대구광역시 북구 칠곡중앙대로52길 32,태전2동행정복지센터,128.548766,35.9214797,2723073500,22645,A1300005,4.9327,A1300010,9.2582,A1300006,14.4768,A1300009,9.1685,20241107_010450
대구,서구,내당1동,41864,대구광역시 서구 서대구로4길 35,내당1동행정복지센터,128.5607263,35.8606545,2717051000,9601,A1300110,5.6723,A1300004,7.1662,A1300034,7.5751,A1300004,7.1662,20241107_010451
대구,서구,내당2.3동,41811,대구광역시 서구 큰장로15길 11-1,내당2·3동행정복지센터,128.5707795,35.8632482,2717052500,8393,A1300076,5.7137,A1303386,6.3754,A1300004,7.3022,A1300009,7.7972,20241107_010452
대구,서구,내당4동,41853,대구광역시 서구 서대구로3길 46,내당4동행정복지센터,128.55175,35.8589404,2717054000,14735,A1300110,4.0958,A1300006,4.5283,A1300007,5.4712,A1300004,7.1054,20241107_010452
대구,서구,비산1동,41744,대구광역시 서구 북비산로65길 18,비산1동행정복지센터,128.5689458,35.8811924,2717055000,8403,A1300008,8.7193,A1303386,9.5415,A1300076,10.9593,A1300009,13.5428,20241107_010454
대구,서구,비산2.3동,41797,대구광역시 서구 국채보상로81길 43,비산2·3동행정복지센터,128.5747125,35.8758154,2717056500,8105,A1300008,7.2905,A1303386,8.2053,A1300076,10.1131,A1300009,12.1346,20241107_010454
대구,서구,비산4동,41808,대구광역시 서구 국채보상로78길 29-4,비산4동행정복지센터,128.574308,35.8697526,2717058000,8820,A1303386,7.2413,A1300008,7.5305,A1300076,8.0954,A1300009,15.0489,20241107_010455
대구,서구,비산5동,41718,대구광역시 서구 달서천로65길 17,비산5동행정복지센터,128.5696192,35.8863039,2717059000,5211,A1300008,9.673,A1303386,10.3396,A1300076,11.8424,A1300009,14.8493,20241107_010456
대구,서구,비산6동,41782,대구광역시 서구 문화로67길 3,비산6동행정복지센터,128.569075,35.87629,2717060000,6748,A1300008,8.5142,A1303386,8.5147,A1300076,9.9325,A1300009,12.016,20241107_010457
대구,서구,비산7동,41709,대구광역시 서구 염색공단로5길 4,비산7동행정복지센터,128.553558,35.8879427,2717061000,8532,A1300005,10.5101,A1300007,11.2826,A1300110,11.8399,A1300009,13.0651,20241107_010458
대구,서구,상중이동,41842,대구광역시 서구 당산로 343,상중이동행정복지센터,128.5461141,35.8669758,2717067500,17991,A1300007,3.7623,A1300110,4.8433,A1300006,5.2757,A1300004,10.5011,20241107_010458
대구,서구,원대동,41716,대구광역시 서구 달서로 257,원대동행정복지센터,128.5734662,35.8853501,2717069500,10235,A1300008,10.7096,A1300076,11.643,A1303386,11.7841,A1300009,13.5171,20241107_010500
대구,서구,평리1동,41787,대구광역시 서구 문화로 280,평리1동행정복지센터,128.5632042,35.8756068,2717062000,6760,A1303386,8.69,A1300076,10.1382,A1300007,10.1453,A1300009,12.2608,20241107_010503
대구,서구,평리2동,41813,대구광역시 서구 국채보상로60길 6,평리2동행정복지센터,128.563644,35.8712267,2717063000,7258,A1303386,8.3128,A1300110,9.5981,A1300076,9.985,A1300009,16.0139,20241107_010504
대구,서구,평리3동,41772,대구광역시 서구 문화로 261,평리3동행정복지센터,128.5613061,35.8759617,2717064000,12524,A1300007,9.2447,A1300110,10.1471,A1303386,11.2258,A1300009,14.2124,20241107_010504
대구,서구,평리4동,41828,대구광역시 서구 국채보상로46길 37-3,평리4동행정복지센터,128.5568122,35.8673387,2717065000,16016,A1300007,5.7102,A1300110,6.3016,A1300006,6.734,A1300009,18.3413,20241107_010505
대구,서구,평리5동,41769,대구광역시 서구 국채보상로 151(임시청사),평리5동행정복지센터,128.5506009,35.8742198,2717066000,8568,A1300007,6.6995,A1300110,8.4921,A1300006,8.9245,A1300004,10.3879,20241107_010506
대구,서구,평리6동,41763,대구광역시 서구 서대구로41길 41,평리6동행정복지센터,128.5500837,35.8765877,2717066100,5563,A1300007,7.2015,A1300110,8.6441,A1300006,9.0766,A1300004,10.54,20241107_010508
대구,수성구,고산1동,42277,대구광역시 수성구 달구벌대로 3260-2,고산1동행정복지센터,128.712388,35.8371144,2726067000,31192,A1300081,4.1329,A2700036,6.6385,A2700019,10.3626,A1300009,18.6759,20241107_010509
대구,수성구,고산2동,42262,대구광역시 수성구 달구벌대로 3091,고산2동행정복지센터,128.6951688,35.8434019,2726068000,26469,A1300081,2.8503,A2700036,11.0091,A1300009,13.1048,A1300009,13.0964,20241107_010510
대구,수성구,고산3동,42266,대구광역시 수성구 고산로 152,고산3동행정복지센터,128.7065669,35.8441109,2726069000,30143,A1300081,2.1269,A2700036,9.307,A2700019,11.5901,A1300009,15.7618,20241107_010510
대구,수성구,두산동,42172,대구광역시 수성구 상화로 95,두산동행정복지센터,128.6175259,35.8353136,2726064000,14652,A1300002,10.695,A1300001,11.3173,A1300033,11.802,A1300009,13.6477,20241107_010511
대구,수성구,만촌1동,42043,대구광역시 수성구 국채보상로 1001,만촌1동행정복지센터,128.6399664,35.8663111,2726055000,20770,A1300033,6.7897,A1300009,8.0987,A1300002,9.5381,A1300009,8.0987,20241107_010513
대구,수성구,만촌2동,42066,대구광역시 수성구 무열로 12,만촌2동행정복지센터,128.6472178,35.8598566,2726056000,10381,A1300009,9.4895,A1300033,10.2716,A1300002,11.259,A1300009,9.4895,20241107_010513
대구,수성구,만촌3동,42068,대구광역시 수성구 교학로2길 45,만촌3동행정복지센터,128.650625,35.855499,2726056100,21039,A1300081,8.9729,A1300033,11.0085,A1300002,11.1265,A1300009,11.2311,20241107_010514
대구,수성구,범물1동,42241,대구광역시 수성구 범안로 76,범물1동행정복지센터,128.6459696,35.817762,2726066100,10150,A1300081,9.7733,A1300018,13.2463,A1300002,14.7844,A1300009,18.7003,20241107_010515
대구,수성구,범물2동,42242,대구광역시 수성구 범안로 52,범물2동행정복지센터,128.6434402,35.8175861,2726066200,15939,A1300002,14.178,A1300018,14.3348,A1300033,15.2066,A1300009,19.8484,20241107_010516
대구,수성구,범어1동,42116,대구광역시 수성구 범어천로 97,범어1동행정복지센터,128.6220352,35.8555656,2726051000,20205,A1300033,7.0761,A1300002,7.4635,A1300009,8.9452,A1300009,8.9452,20241107_010516
대구,수성구,범어2동,42026,대구광역시 수성구 달구벌대로489안길 47,범어2동행정복지센터,128.6310757,35.8622691,2726052000,14360,A1300033,7.9416,A1300009,8.556,A1300002,8.929,A1300009,8.556,20241107_010517
대구,수성구,범어3동,42013,대구광역시 수성구 상록로 42,범어3동행정복지센터,128.6241846,35.8632763,2726053000,17501,A1300033,5.116,A1300009,6.3508,A1300002,6.5808,A1300009,6.3508,20241107_010517
대구,수성구,범어4동,42088,대구광역시 수성구 달구벌대로504길 26,범어4동행정복지센터,128.6381714,35.8561882,2726054000,19068,A1300033,9.6055,A1300009,9.6468,A1300002,10.0199,A1300009,9.6468,20241107_010518
대구,수성구,상동,42168,대구광역시 수성구 들안로9길 56,상동행정복지센터,128.6154039,35.8321069,2726062000,14575,A1300002,9.0741,A1300033,10.1758,A1300001,12.0405,A1300009,13.4689,20241107_010519
대구,수성구,수성1가동,42127,대구광역시 수성구 명덕로73길 7,수성1가동행정복지센터,128.6103112,35.8552321,2726057000,16958,A1300002,5.5712,A1300033,6.1399,A1300001,8.4055,A1300009,8.7125,20241107_010520
대구,수성구,수성2.3가동,42119,대구광역시 수성구 명덕로 443-2,수성2·3가동행정복지센터,128.6190324,35.8547729,2726058000,10515,A1300033,6.2211,A1300002,6.3156,A1300009,9.8808,A1300009,9.8808,20241107_010522
대구,수성구,수성4가동,42005,대구광역시 수성구 들안로67길 64,수성4가동행정복지센터,128.616638,35.862665,2726059000,13365,A1300002,5.4491,A1300033,5.5925,A1300009,8.039,A1300009,8.039,20241107_010522
대구,수성구,중동,42134,대구광역시 수성구 수성로50길 38,중동행정복지센터,128.6150346,35.847374,2726061000,14462,A1300002,7.119,A1300033,8.0413,A1300001,9.4259,A1300009,10.3689,20241107_010523
대구,수성구,지산1동,42196,대구광역시 수성구 지범로21길 16,지산1동행정복지센터,128.6370121,35.8248724,2726065100,19487,A1300002,13.3413,A1300033,14.0377,A1300001,16.3695,A1300009,16.753,20241107_010524
대구,수성구,지산2동,42216,대구광역시 수성구 용학로33길 9,지산2동행정복지센터,128.6280122,35.8231297,2726065200,18800,A1300002,12.7835,A1300033,13.8163,A1300001,15.3652,A1300009,16.6398,20241107_010525
대구,수성구,파동,42231,대구광역시 수성구 파동로 136,파동행정복지센터,128.6151312,35.8154478,2726063000,15219,A1300002,10.0763,A1300033,11.0848,A1300034,11.1533,A1300009,12.8783,20241107_010526
대구,수성구,황금1동,42111,대구광역시 수성구 청호로57길 10,황금1동행정복지센터,128.6381715,35.8439538,2726060100,21890,A1300002,13.0746,A1300009,13.9367,A1300033,14.2648,A1300009,13.9367,20241107_010526
대구,수성구,황금2동,42144,대구광역시 수성구 청솔로2길 64,황금2동행정복지센터,128.6237245,35.8471947,2726060200,11337,A1300033,8.8718,A1300002,9.461,A1300009,10.5117,A1300009,10.5117,20241107_010527
대구,중구,남산1동,41968,대구광역시 중구 2.28길 18-15,남산1동행정복지센터,128.5904272,35.8593362,2711064000,4327,A1303386,5.8556,A1300001,5.9438,A1300076,6.7243,A1300009,8.2861,20241107_010528
대구,중구,남산2동,41966,대구광역시 중구 명륜로 27-1,남산2동행정복지센터,128.5895375,35.8640404,2711065000,7182,A1303386,5.4183,A1300008,5.7179,A1300002,8.0313,A1300009,12.1624,20241107_010528
대구,중구,남산3동,41969,대구광역시 중구 남산로4길 70,남산3동행정복지센터,128.5854883,35.8598713,2711066000,6070,A1303386,4.4494,A1300001,5.9553,A1300076,7.3386,A1300009,9.4687,20241107_010529
대구,중구,남산4동,41977,대구광역시 중구 남산로1길 42,남산4동행정복지센터,128.5805738,35.8581982,2711067000,16274,A1300001,4.2271,A1300076,5.6104,A1303386,5.713,A1300009,7.5241,20241107_010529
대구,중구,대봉1동,41951,대구광역시 중구 달구벌대로440길 27,대봉1동행정복지센터,128.6043,35.861649,2711068000,7757,A1300002,2.2107,A1300033,6.6781,A1300008,6.9517,A1300009,9.6206,20241107_010530
대구,중구,대봉2동,41955,대구광역시 중구 대봉로47길 31,대봉2동행정복지센터,128.5993473,35.8587666,2711069000,4644,A1300002,4.1738,A1300008,7.3735,A1300001,7.9373,A1300009,10.9501,20241107_010531
대구,중구,대신동,41929,대구광역시 중구 달구벌대로389길 50,대신동행정복지센터,128.5762676,35.8655452,2711059500,7436,A1303386,6.1799,A1300076,6.9672,A1300008,7.7031,A1300009,13.9765,20241107_010532
대구,중구,동인동,41946,대구광역시 중구 국채보상로142길 19-5,동인동행정복지센터,128.6091498,35.8679123,2711051700,9723,A1300002,2.8717,A1300033,5.6334,A1300008,5.9453,A1300009,7.5695,20241107_010533
대구,중구,삼덕동,41946,대구광역시 중구 달구벌대로447길 72-11,삼덕동행정복지센터,128.6089,35.865549,2711054500,6688,A1300002,2.3365,A1300033,6.1964,A1300008,6.4587,A1300009,8.2295,20241107_010533
대구,중구,성내1동,41942,대구광역시 중구 동성로2길 7,성내1동행정복지센터,128.5957865,35.8666483,2711056500,4821,A1300008,7.4701,A1303386,7.6477,A1300002,8.0402,A1300009,10.6707,20241107_010534
대구,중구,성내2동,41934,대구광역시 중구 달구벌대로415길 48,성내2동행정복지센터,128.5903863,35.868375,2711057500,7834,A1300008,3.8874,A1303386,6.7485,A1300002,7.5265,A1300009,11.4295,20241107_010535
대구,중구,성내3동,41922,대구광역시 중구 달성로 111,성내3동행정복지센터,128.5818047,35.8750109,2711058500,12052,A1303386,4.5207,A1300008,6.5705,A1300001,8.2557,A1300009,12.0632,20241107_010535
